{"data":{"stations":[{"legacy_id":"1","lat":38.858971,"station_id":"1","region_id":"41","rental_uris":{"ios":"https://dc.lft.to/lastmile_qr_scan","android":"https://dc.lft.to/lastmile_qr_scan"},"has_kiosk":true,"eightd_has_key_dispenser":false,"external_id":"082469cc-1f3f-11e7-bf6b-3863bb334450","capacity":15,"name":"Eads St & 15th St S","eightd_station_services":[],"electric_bike_surcharge_waiver":false,"rental_methods":["KEY","CREDITCARD"],"lon":-77.05323,"station_type":"classic","short_name":"31000"},{"legacy_id":"2","lat":38.85725,"station_id":"2","region_id":"41","rental_uris":{"ios":"https://dc.lft.to/lastmile_qr_scan","android":"https://dc.lft.to/lastmile_qr_scan"},"has_kiosk":true,"eightd_has_key_dispenser":false,"external_id":"08246b69-1f3f-11e7-bf6b-3863bb334450","capacity":11,"name":"18th St & S Eads St","eightd_station_services":[],"electric_bike_surcharge_waiver":false,"rental_methods":["KEY","CREDITCARD"],"lon":-77.05332,"station_type":"classic","short_name":"31001"},{"legacy_id":"3","lat":38.856425,"station_id":"3","region_id":"41","rental_uris":{"ios":"https://dc.lft.to/lastmile_qr_scan","android":"https://dc.lft.to/lastmile_qr_scan"},"has_kiosk":true,"eightd_has_key_dispenser":false,"external_id":"08246c35-1f3f-11e7-bf6b-3863bb334450","capacity":17,"name":"Crystal Dr & 20th St S","eightd_station_services":[],"electric_bike_surcharge_waiver":false,"rental_methods":["KEY","CREDITCARD"],"lon":-77.049232,"station_type":"classic","short_name":"31002"},{"legacy_id":"4","lat":38.86017,"station_id":"4","region_id":"41","rental_uris":{"ios":"https://dc.lft.to/lastmile_qr_scan","android":"https://dc.lft.to/lastmile_qr_scan"},"has_kiosk":true,"eightd_has_key_dispenser":false,"external_id":"08246cd5-1f3f-11e7-bf6b-3863bb334450","capacity":11,"name":"Crystal Dr & 15th St S","eightd_station_services":[],"electric_bike_surcharge_waiver":false,"rental_methods":["KEY","CREDITCARD"],"lon":-77.049593,"station_type":"classic","short_name":"31003"},{"legacy_id":"5","lat":38.857866,"station_id":"5","region_id":"41","rental_uris":{"ios":"https://dc.lft.to/lastmile_qr_scan","android":"https://dc.lft.to/lastmile_qr_scan"},"has_kiosk":true,"eightd_has_key_dispenser":false,"external_id":"08246d68-1f3f-11e7-bf6b-3863bb334450","capacity":11,"name":"Aurora Hills Cmty Ctr / 18th St & S Hayes St","eightd_station_services":[],"electric_bike_surcharge_waiver":false,"rental_methods":["KEY","CREDITCARD"],"lon":-77.05949,"station_type":"classic","short_name":"31004"},{"legacy_id":"6","lat":38.862303,"station_id":"6","region_id":"41","rental_uris":{"ios":"https://dc.lft.to/lastmile_qr_scan","android":"https://dc.lft.to/lastmile_qr_scan"},"has_kiosk":true,"eightd_has_key_dispenser":false,"external_id":"08246df5-1f3f-11e7-bf6b-3863bb334450","capacity":19,"name":"Pentagon City Metro / 12th St & S Hayes St","eightd_station_services":[],"electric_bike_surcharge_waiver":false,"rental_methods":["KEY","CREDITCARD"],"lon":-77.059936,"station_type":"classic","short_name":"31005"},{"legacy_id":"7","lat":38.8637,"station_id":"7","region_id":"41","rental_uris":{"ios":"https://dc.lft.to/lastmile_qr_scan","android":"https://dc.lft.to/lastmile_qr_scan"},"has_kiosk":true,"eightd_has_key_dispenser":false,"external_id":"08246e8c-1f3f-11e7-bf6b-3863bb334450","capacity":15,"name":"Army Navy Dr & S Joyce St","eightd_station_services":[],"electric_bike_surcharge_waiver":false,"rental_methods":["KEY","CREDITCARD"],"lon":-77.0633,"station_type":"classic","short_name":"31006"},{"legacy_id":"8","lat":38.85740496261504,"station_id":"8","region_id":"41","rental_uris":{"ios":"https://dc.lft.to/lastmile_qr_scan","android":"https://dc.lft.to/lastmile_qr_scan"},"has_kiosk":true,"eightd_has_key_dispenser":false,"external_id":"08246f1f-1f3f-11e7-bf6b-3863bb334450","capacity":19,"name":"Crystal City Metro / 18th St & S Bell St","eightd_station_services":[],"electric_bike_surcharge_waiver":false,"rental_methods":["KEY","CREDITCARD"],"lon":-77.05113172531128,"station_type":"classic","short_name":"31007"},{"legacy_id":"10","lat":38.848466,"station_id":"10","region_id":"41","rental_uris":{"ios":"https://dc.lft.to/lastmile_qr_scan","android":"https://dc.lft.to/lastmile_qr_scan"},"has_kiosk":true,"eightd_has_key_dispenser":false,"external_id":"08247052-1f3f-11e7-bf6b-3863bb334450","capacity":11,"name":"Crystal Dr & 27th St S","eightd_station_services":[],"electric_bike_surcharge_waiver":false,"rental_methods":["KEY","CREDITCARD"],"lon":-77.051514,"station_type":"classic","short_name":"31009"},{"legacy_id":"11","lat":38.8426,"station_id":"11","region_id":"41","rental_uris":{"ios":"https://dc.lft.to/lastmile_qr_scan","android":"https://dc.lft.to/lastmile_qr_scan"},"has_kiosk":true,"eightd_has_key_dispenser":false,"external_id":"08247269-1f3f-11e7-bf6b-3863bb334450","capacity":11,"name":"S Glebe Rd & Potomac Ave","eightd_station_services":[],"electric_bike_surcharge_waiver":false,"rental_methods":["KEY","CREDITCARD"],"lon":-77.0502,"station_type":"classic","short_name":"31010"},{"legacy_id":"12","lat":38.8533,"station_id":"12","region_id":"41","rental_uris":{"ios":"https://dc.lft.to/lastmile_qr_scan","android":"https://dc.lft.to/lastmile_qr_scan"},"has_kiosk":true,"eightd_has_key_dispenser":false,"external_id":"08247310-1f3f-11e7-bf6b-3863bb334450","capacity":17,"name":"Crystal Dr & 23rd St S","eightd_station_services":[],"electric_bike_surcharge_waiver":false,"rental_methods":["KEY","CREDITCARD"],"lon":-77.0498,"station_type":"classic","short_name":"31011"},{"legacy_id":"13","lat":38.850688,"station_id":"13","region_id":"41","rental_uris":{"ios":"https://dc.lft.to/lastmile_qr_scan","android":"https://dc.lft.to/lastmile_qr_scan"},"has_kiosk":true,"eightd_has_key_dispenser":false,"external_id":"0824739d-1f3f-11e7-bf6b-3863bb334450","capacity":11,"name":"Clark St & 26th St S","eightd_station_services":[],"electric_bike_surcharge_waiver":false,"rental_methods":["KEY","CREDITCARD"],"lon":-77.05152,"station_type":"classic","short_name":"31012"},{"legacy_id":"14","lat":38.9003,"station_id":"14","region_id":"42","rental_uris":{"ios":"https://dc.lft.to/lastmile_qr_scan","android":"https://dc.lft.to/lastmile_qr_scan"},"has_kiosk":true,"eightd_has_key_dispenser":false,"external_id":"0824741d-1f3f-11e7-bf6b-3863bb334450","capacity":15,"name":"19th St & Pennsylvania Ave NW","eightd_station_services":[],"electric_bike_surcharge_waiver":false,"rental_methods":["KEY","CREDITCARD"],"lon":-77.0429,"station_type":"classic","short_name":"31100"},{"legacy_id":"15","lat":38.9177645,"station_id":"15","region_id":"42","rental_uris":{"ios":"https://dc.lft.to/lastmile_qr_scan","android":"https://dc.lft.to/lastmile_qr_scan"},"has_kiosk":true,"eightd_has_key_dispenser":false,"external_id":"0824749f-1f3f-11e7-bf6b-3863bb334450","capacity":31,"name":"14th & V St NW","eightd_station_services":[],"electric_bike_surcharge_waiver":false,"rental_methods":["KEY","CREDITCARD"],"lon":-77.032096,"station_type":"classic","short_name":"31101"},{"legacy_id":"16","lat":38.929464,"station_id":"16","region_id":"42","rental_uris":{"ios":"https://dc.lft.to/lastmile_qr_scan","android":"https://dc.lft.to/lastmile_qr_scan"},"has_kiosk":true,"eightd_has_key_dispenser":false,"external_id":"08247522-1f3f-11e7-bf6b-3863bb334450","capacity":27,"name":"11th & Kenyon St NW","eightd_station_services":[],"electric_bike_surcharge_waiver":false,"rental_methods":["KEY","CREDITCARD"],"lon":-77.027822,"station_type":"classic","short_name":"31102"},{"legacy_id":"17","lat":38.926088,"station_id":"17","region_id":"42","rental_uris":{"ios":"https://dc.lft.to/lastmile_qr_scan","android":"https://dc.lft.to/lastmile_qr_scan"},"has_kiosk":true,"eightd_has_key_dispenser":false,"external_id":"082475a9-1f3f-11e7-bf6b-3863bb334450","capacity":33,"name":"16th & Harvard St NW","eightd_station_services":[],"electric_bike_surcharge_waiver":false,"rental_methods":["KEY","CREDITCARD"],"lon":-77.036536,"station_type":"classic","short_name":"31103"},{"legacy_id":"18","lat":38.922925,"station_id":"18","region_id":"42","rental_uris":{"ios":"https://dc.lft.to/lastmile_qr_scan","android":"https://dc.lft.to/lastmile_qr_scan"},"has_kiosk":true,"eightd_has_key_dispenser":false,"external_id":"08247632-1f3f-11e7-bf6b-3863bb334450","capacity":15,"name":"Adams Mill & Columbia Rd NW","eightd_station_services":[],"electric_bike_surcharge_waiver":false,"rental_methods":["KEY","CREDITCARD"],"lon":-77.042581,"station_type":"classic","short_name":"31104"},{"legacy_id":"19","lat":38.9268,"station_id":"19","region_id":"42","rental_uris":{"ios":"https://dc.lft.to/lastmile_qr_scan","android":"https://dc.lft.to/lastmile_qr_scan"},"has_kiosk":true,"eightd_has_key_dispenser":false,"external_id":"082476ba-1f3f-11e7-bf6b-3863bb334450","capacity":19,"name":"14th & Harvard St NW","eightd_station_services":[],"electric_bike_surcharge_waiver":false,"rental_methods":["KEY","CREDITCARD"],"lon":-77.0322,"station_type":"classic","short_name":"31105"},{"legacy_id":"20","lat":38.923203,"station_id":"20","region_id":"42","rental_uris":{"ios":"https://dc.lft.to/lastmile_qr_scan","android":"https://dc.lft.to/lastmile_qr_scan"},"has_kiosk":true,"eightd_has_key_dispenser":false,"external_id":"0824773f-1f3f-11e7-bf6b-3863bb334450","capacity":23,"name":"Calvert & Biltmore St NW","eightd_station_services":[],"electric_bike_surcharge_waiver":false,"rental_methods":["KEY","CREDITCARD"],"lon":-77.047637,"station_type":"classic","short_name":"31106"},{"legacy_id":"21","lat":38.9319,"station_id":"21","region_id":"42","rental_uris":{"ios":"https://dc.lft.to/lastmile_qr_scan","android":"https://dc.lft.to/lastmile_qr_scan"},"has_kiosk":true,"eightd_has_key_dispenser":false,"external_id":"082477f4-1f3f-11e7-bf6b-3863bb334450","capacity":19,"name":"Lamont & Mt Pleasant NW","eightd_station_services":[],"electric_bike_surcharge_waiver":false,"rental_methods":["KEY","CREDITCARD"],"lon":-77.0388,"station_type":"classic","short_name":"31107"},{"legacy_id":"22","lat":38.876697,"station_id":"22","region_id":"42","rental_uris":{"ios":"https://dc.lft.to/lastmile_qr_scan","android":"https://dc.lft.to/lastmile_qr_scan"},"has_kiosk":true,"eightd_has_key_dispenser":false,"external_id":"08247896-1f3f-11e7-bf6b-3863bb334450","capacity":23,"name":"4th & M St SW","eightd_station_services":[],"electric_bike_surcharge_waiver":false,"rental_methods":["KEY","CREDITCARD"],"lon":-77.0178975,"station_type":"classic","short_name":"31108"},{"legacy_id":"23","lat":38.909868,"station_id":"23","region_id":"42","rental_uris":{"ios":"https://dc.lft.to/lastmile_qr_scan","android":"https://dc.lft.to/lastmile_qr_scan"},"has_kiosk":true,"eightd_has_key_dispenser":false,"external_id":"0824791a-1f3f-11e7-bf6b-3863bb334450","capacity":19,"name":"15th & P St NW","eightd_station_services":[],"electric_bike_surcharge_waiver":false,"rental_methods":["KEY","CREDITCARD"],"lon":-77.034421,"station_type":"classic","short_name":"31201"},{"legacy_id":"24","lat":38.913046,"station_id":"24","region_id":"42","rental_uris":{"ios":"https://dc.lft.to/lastmile_qr_scan","android":"https://dc.lft.to/lastmile_qr_scan"},"has_kiosk":true,"eightd_has_key_dispenser":false,"external_id":"0824799f-1f3f-11e7-bf6b-3863bb334450","capacity":19,"name":"14th & R St NW","eightd_station_services":[],"electric_bike_surcharge_waiver":false,"rental_methods":["KEY","CREDITCARD"],"lon":-77.032008,"station_type":"classic","short_name":"31202"},{"legacy_id":"25","lat":38.9086,"station_id":"25","region_id":"42","rental_uris":{"ios":"https://dc.lft.to/lastmile_qr_scan","android":"https://dc.lft.to/lastmile_qr_scan"},"has_kiosk":true,"eightd_has_key_dispenser":false,"external_id":"08247a21-1f3f-11e7-bf6b-3863bb334450","capacity":23,"name":"14th & Rhode Island Ave NW","eightd_station_services":[],"electric_bike_surcharge_waiver":false,"rental_methods":["KEY","CREDITCARD"],"lon":-77.0323,"station_type":"classic","short_name":"31203"},{"legacy_id":"26","lat":38.8963,"station_id":"26","region_id":"42","rental_uris":{"ios":"https://dc.lft.to/lastmile_qr_scan","android":"https://dc.lft.to/lastmile_qr_scan"},"has_kiosk":true,"eightd_has_key_dispenser":false,"external_id":"08247aa4-1f3f-11e7-bf6b-3863bb334450","capacity":15,"name":"20th & E St NW","eightd_station_services":[],"electric_bike_surcharge_waiver":false,"rental_methods":["KEY","CREDITCARD"],"lon":-77.045,"station_type":"classic","short_name":"31204"},{"legacy_id":"27","lat":38.90071062547463,"station_id":"27","region_id":"42","rental_uris":{"ios":"https://dc.lft.to/lastmile_qr_scan","android":"https://dc.lft.to/lastmile_qr_scan"},"has_kiosk":true,"eightd_has_key_dispenser":false,"external_id":"08247b29-1f3f-11e7-bf6b-3863bb334450","capacity":35,"name":"21st & I St NW","eightd_station_services":[],"electric_bike_surcharge_waiver":false,"rental_methods":["KEY","CREDITCARD"],"lon":-77.04644858837128,"station_type":"classic","short_name":"31205"},{"legacy_id":"28","lat":38.9366839345886,"station_id":"28","region_id":"42","rental_uris":{"ios":"https://dc.lft.to/lastmile_qr_scan","android":"https://dc.lft.to/lastmile_qr_scan"},"has_kiosk":true,"eightd_has_key_dispenser":false,"external_id":"08247baa-1f3f-11e7-bf6b-3863bb334450","capacity":19,"name":"Georgia & New Hampshire Ave NW","eightd_station_services":[],"electric_bike_surcharge_waiver":false,"rental_methods":["KEY","CREDITCARD"],"lon":-77.02418088912964,"station_type":"classic","short_name":"31400"},{"legacy_id":"29","lat":38.9375,"station_id":"29","region_id":"42","rental_uris":{"ios":"https://dc.lft.to/lastmile_qr_scan","android":"https://dc.lft.to/lastmile_qr_scan"},"has_kiosk":true,"eightd_has_key_dispenser":false,"external_id":"08247c29-1f3f-11e7-bf6b-3863bb334450","capacity":19,"name":"14th St & Spring Rd NW","eightd_station_services":[],"electric_bike_surcharge_waiver":false,"rental_methods":["KEY","CREDITCARD"],"lon":-77.0328,"station_type":"classic","short_name":"31401"},{"legacy_id":"30","lat":38.9346,"station_id":"30","region_id":"42","rental_uris":{"ios":"https://dc.lft.to/lastmile_qr_scan","android":"https://dc.lft.to/lastmile_qr_scan"},"has_kiosk":true,"eightd_has_key_dispenser":false,"external_id":"08247cac-1f3f-11e7-bf6b-3863bb334450","capacity":11,"name":"John McCormack Dr & Michigan Ave NE","eightd_station_services":[],"electric_bike_surcharge_waiver":false,"rental_methods":["KEY","CREDITCARD"],"lon":-76.9955,"station_type":"classic","short_name":"31502"},{"legacy_id":"31","lat":38.90304,"station_id":"31","region_id":"42","rental_uris":{"ios":"https://dc.lft.to/lastmile_qr_scan","android":"https://dc.lft.to/lastmile_qr_scan"},"has_kiosk":true,"eightd_has_key_dispenser":false,"external_id":"08247d46-1f3f-11e7-bf6b-3863bb334450","capacity":19,"name":"5th & K St NW","eightd_station_services":[],"electric_bike_surcharge_waiver":false,"rental_methods":["KEY","CREDITCARD"],"lon":-77.019027,"station_type":"classic","short_name":"31600"},{"legacy_id":"32","lat":38.8896,"station_id":"32","region_id":"42","rental_uris":{"ios":"https://dc.lft.to/lastmile_qr_scan","android":"https://dc.lft.to/lastmile_qr_scan"},"has_kiosk":true,"eightd_has_key_dispenser":false,"external_id":"08247dd0-1f3f-11e7-bf6b-3863bb334450","capacity":15,"name":"19th & East Capitol St SE","eightd_station_services":[],"electric_bike_surcharge_waiver":false,"rental_methods":["KEY","CREDITCARD"],"lon":-76.9769,"station_type":"classic","short_name":"31601"},{"legacy_id":"33","lat":38.9308,"station_id":"33","region_id":"42","rental_uris":{"ios":"https://dc.lft.to/lastmile_qr_scan","android":"https://dc.lft.to/lastmile_qr_scan"},"has_kiosk":true,"eightd_has_key_dispenser":false,"external_id":"08247e59-1f3f-11e7-bf6b-3863bb334450","capacity":19,"name":"Park Rd & Holmead Pl NW","eightd_station_services":[],"electric_bike_surcharge_waiver":false,"rental_methods":["KEY","CREDITCARD"],"lon":-77.0315,"station_type":"classic","short_name":"31602"},{"legacy_id":"34","lat":38.86005647007575,"station_id":"34","region_id":"42","rental_uris":{"ios":"https://dc.lft.to/lastmile_qr_scan","android":"https://dc.lft.to/lastmile_qr_scan"},"has_kiosk":true,"eightd_has_key_dispenser":false,"external_id":"08247ed8-1f3f-11e7-bf6b-3863bb334450","capacity":11,"name":"Good Hope & Naylor Rd SE","eightd_station_services":[],"electric_bike_surcharge_waiver":false,"rental_methods":["KEY","CREDITCARD"],"lon":-76.96783974766731,"station_type":"classic","short_name":"31700"},{"legacy_id":"35","lat":38.934267,"station_id":"35","region_id":"42","rental_uris":{"ios":"https://dc.lft.to/lastmile_qr_scan","android":"https://dc.lft.to/lastmile_qr_scan"},"has_kiosk":true,"eightd_has_key_dispenser":false,"external_id":"08247f59-1f3f-11e7-bf6b-3863bb334450","capacity":11,"name":"Connecticut Ave & Newark St NW / Cleveland Park","eightd_station_services":[],"electric_bike_surcharge_waiver":false,"rental_methods":["KEY","CREDITCARD"],"lon":-77.057979,"station_type":"classic","short_name":"31305"},{"legacy_id":"36","lat":38.878,"station_id":"36","region_id":"42","rental_uris":{"ios":"https://dc.lft.to/lastmile_qr_scan","android":"https://dc.lft.to/lastmile_qr_scan"},"has_kiosk":true,"eightd_has_key_dispenser":false,"external_id":"08247fe1-1f3f-11e7-bf6b-3863bb334450","capacity":11,"name":"Randle Circle & Minnesota Ave SE","eightd_station_services":[],"electric_bike_surcharge_waiver":false,"rental_methods":["KEY","CREDITCARD"],"lon":-76.9607,"station_type":"classic","short_name":"31702"},{"legacy_id":"37","lat":38.897063,"station_id":"37","region_id":"42","rental_uris":{"ios":"https://dc.lft.to/lastmile_qr_scan","android":"https://dc.lft.to/lastmile_qr_scan"},"has_kiosk":true,"eightd_has_key_dispenser":false,"external_id":"0824806c-1f3f-11e7-bf6b-3863bb334450","capacity":15,"name":"Minnesota Ave Metro/DOES","eightd_station_services":[],"electric_bike_surcharge_waiver":false,"rental_methods":["KEY","CREDITCARD"],"lon":-76.947446,"station_type":"classic","short_name":"31703"},{"legacy_id":"38","lat":38.901385,"station_id":"38","region_id":"42","rental_uris":{"ios":"https://dc.lft.to/lastmile_qr_scan","android":"https://dc.lft.to/lastmile_qr_scan"},"has_kiosk":true,"eightd_has_key_dispenser":false,"external_id":"082480f1-1f3f-11e7-bf6b-3863bb334450","capacity":11,"name":"Nannie Helen Burroughs & Minnesota Ave NE","eightd_station_services":[],"electric_bike_surcharge_waiver":false,"rental_methods":["KEY","CREDITCARD"],"lon":-76.941877,"station_type":"classic","short_name":"31704"},{"legacy_id":"39","lat":38.862669,"station_id":"39","region_id":"42","rental_uris":{"ios":"https://dc.lft.to/lastmile_qr_scan","android":"https://dc.lft.to/lastmile_qr_scan"},"has_kiosk":true,"eightd_has_key_dispenser":false,"external_id":"08248172-1f3f-11e7-bf6b-3863bb334450","capacity":11,"name":"Anacostia Metro","eightd_station_services":[],"electric_bike_surcharge_waiver":false,"rental_methods":["KEY","CREDITCARD"],"lon":-76.994637,"station_type":"classic","short_name":"31801"},{"legacy_id":"40","lat":38.867373,"station_id":"40","region_id":"42","rental_uris":{"ios":"https://dc.lft.to/lastmile_qr_scan","android":"https://dc.lft.to/lastmile_qr_scan"},"has_kiosk":true,"eightd_has_key_dispenser":false,"external_id":"0824821f-1f3f-11e7-bf6b-3863bb334450","capacity":11,"name":"Good Hope Rd & MLK Ave SE","eightd_station_services":[],"electric_bike_surcharge_waiver":false,"rental_methods":["KEY","CREDITCARD"],"lon":-76.988039,"station_type":"classic","short_name":"31802"},{"legacy_id":"41","lat":38.8952,"station_id":"41","region_id":"42","rental_uris":{"ios":"https://dc.lft.to/lastmile_qr_scan","android":"https://dc.lft.to/lastmile_qr_scan"},"has_kiosk":true,"eightd_has_key_dispenser":false,"external_id":"082482b3-1f3f-11e7-bf6b-3863bb334450","capacity":11,"name":"19th & E Street NW","eightd_station_services":[],"electric_bike_surcharge_waiver":false,"rental_methods":["KEY","CREDITCARD"],"lon":-77.0436,"station_type":"classic","short_name":"31206"},{"legacy_id":"42","lat":38.919077,"station_id":"42","region_id":"42","rental_uris":{"ios":"https://dc.lft.to/lastmile_qr_scan","android":"https://dc.lft.to/lastmile_qr_scan"},"has_kiosk":true,"eightd_has_key_dispenser":false,"external_id":"0824833c-1f3f-11e7-bf6b-3863bb334450","capacity":15,"name":"4th & W St NE","eightd_station_services":[],"electric_bike_surcharge_waiver":false,"rental_methods":["KEY","CREDITCARD"],"lon":-77.000648,"station_type":"classic","short_name":"31500"},{"legacy_id":"43","lat":38.9172,"station_id":"43","region_id":"42","rental_uris":{"ios":"https://dc.lft.to/lastmile_qr_scan","android":"https://dc.lft.to/lastmile_qr_scan"},"has_kiosk":true,"eightd_has_key_dispenser":false,"external_id":"082483c2-1f3f-11e7-bf6b-3863bb334450","capacity":15,"name":"10th & U St NW","eightd_station_services":[],"electric_bike_surcharge_waiver":false,"rental_methods":["KEY","CREDITCARD"],"lon":-77.0259,"station_type":"classic","short_name":"31111"},{"legacy_id":"44","lat":38.9249,"station_id":"44","region_id":"42","rental_uris":{"ios":"https://dc.lft.to/lastmile_qr_scan","android":"https://dc.lft.to/lastmile_qr_scan"},"has_kiosk":true,"eightd_has_key_dispenser":false,"external_id":"0824844b-1f3f-11e7-bf6b-3863bb334450","capacity":11,"name":"Georgia Ave and Fairmont St NW","eightd_station_services":[],"electric_bike_surcharge_waiver":false,"rental_methods":["KEY","CREDITCARD"],"lon":-77.0222,"station_type":"classic","short_name":"31207"},{"legacy_id":"45","lat":38.8743,"station_id":"45","region_id":"42","rental_uris":{"ios":"https://dc.lft.to/lastmile_qr_scan","android":"https://dc.lft.to/lastmile_qr_scan"},"has_kiosk":true,"eightd_has_key_dispenser":false,"external_id":"082484cf-1f3f-11e7-bf6b-3863bb334450","capacity":39,"name":"1st & N St  SE","eightd_station_services":[],"electric_bike_surcharge_waiver":false,"rental_methods":["KEY","CREDITCARD"],"lon":-77.0057,"station_type":"classic","short_name":"31209"},{"legacy_id":"46","lat":38.9154,"station_id":"46","region_id":"42","rental_uris":{"ios":"https://dc.lft.to/lastmile_qr_scan","android":"https://dc.lft.to/lastmile_qr_scan"},"has_kiosk":true,"eightd_has_key_dispenser":false,"external_id":"0824854e-1f3f-11e7-bf6b-3863bb334450","capacity":15,"name":"20th St & Florida Ave NW","eightd_station_services":[],"electric_bike_surcharge_waiver":false,"rental_methods":["KEY","CREDITCARD"],"lon":-77.0446,"station_type":"classic","short_name":"31110"},{"legacy_id":"47","lat":38.9155,"station_id":"47","region_id":"42","rental_uris":{"ios":"https://dc.lft.to/lastmile_qr_scan","android":"https://dc.lft.to/lastmile_qr_scan"},"has_kiosk":true,"eightd_has_key_dispenser":false,"external_id":"082485e8-1f3f-11e7-bf6b-3863bb334450","capacity":15,"name":"7th & T St NW","eightd_station_services":[],"electric_bike_surcharge_waiver":false,"rental_methods":["KEY","CREDITCARD"],"lon":-77.0222,"station_type":"classic","short_name":"31109"},{"legacy_id":"48","lat":38.85438051517749,"station_id":"48","region_id":"41","rental_uris":{"ios":"https://dc.lft.to/lastmile_qr_scan","android":"https://dc.lft.to/lastmile_qr_scan"},"has_kiosk":true,"eightd_has_key_dispenser":false,"external_id":"0824866e-1f3f-11e7-bf6b-3863bb334450","capacity":15,"name":"Eads St & 22nd St S","eightd_station_services":[],"electric_bike_surcharge_waiver":false,"rental_methods":["KEY","CREDITCARD"],"lon":-77.05341160297394,"station_type":"classic","short_name":"31013"},{"legacy_id":"49","lat":38.8763,"station_id":"49","region_id":"42","rental_uris":{"ios":"https://dc.lft.to/lastmile_qr_scan","android":"https://dc.lft.to/lastmile_qr_scan"},"has_kiosk":true,"eightd_has_key_dispenser":false,"external_id":"082486f0-1f3f-11e7-bf6b-3863bb334450","capacity":17,"name":"M St & New Jersey Ave SE","eightd_station_services":[],"electric_bike_surcharge_waiver":false,"rental_methods":["KEY","CREDITCARD"],"lon":-77.0037,"station_type":"classic","short_name":"31208"},{"legacy_id":"51","lat":38.9101,"station_id":"51","region_id":"42","rental_uris":{"ios":"https://dc.lft.to/lastmile_qr_scan","android":"https://dc.lft.to/lastmile_qr_scan"},"has_kiosk":true,"eightd_has_key_dispenser":false,"external_id":"0824920a-1f3f-11e7-bf6b-3863bb334450","capacity":45,"name":"Massachusetts Ave & Dupont Circle NW","eightd_station_services":[],"electric_bike_surcharge_waiver":false,"rental_methods":["KEY","CREDITCARD"],"lon":-77.0444,"station_type":"classic","short_name":"31200"},{"legacy_id":"52","lat":38.905697,"station_id":"52","region_id":"42","rental_uris":{"ios":"https://dc.lft.to/lastmile_qr_scan","android":"https://dc.lft.to/lastmile_qr_scan"},"has_kiosk":true,"eightd_has_key_dispenser":false,"external_id":"0824927c-1f3f-11e7-bf6b-3863bb334450","capacity":15,"name":"1st & M St NE","eightd_station_services":[],"electric_bike_surcharge_waiver":false,"rental_methods":["KEY","CREDITCARD"],"lon":-77.005483,"station_type":"classic","short_name":"31603"},{"legacy_id":"53","lat":38.90571079190728,"station_id":"53","region_id":"42","rental_uris":{"ios":"https://dc.lft.to/lastmile_qr_scan","android":"https://dc.lft.to/lastmile_qr_scan"},"has_kiosk":true,"eightd_has_key_dispenser":false,"external_id":"082492e1-1f3f-11e7-bf6b-3863bb334450","capacity":19,"name":"New Hampshire Ave & Ward Pl NW","eightd_station_services":[],"electric_bike_surcharge_waiver":false,"rental_methods":["KEY","CREDITCARD"],"lon":-77.0473176240921,"station_type":"classic","short_name":"31212"},{"legacy_id":"54","lat":38.90276,"station_id":"54","region_id":"42","rental_uris":{"ios":"https://dc.lft.to/lastmile_qr_scan","android":"https://dc.lft.to/lastmile_qr_scan"},"has_kiosk":true,"eightd_has_key_dispenser":false,"external_id":"08249345-1f3f-11e7-bf6b-3863bb334450","capacity":23,"name":"17th & K St NW","eightd_station_services":[],"electric_bike_surcharge_waiver":false,"rental_methods":["KEY","CREDITCARD"],"lon":-77.03863,"station_type":"classic","short_name":"31213"},{"legacy_id":"55","lat":38.899408,"station_id":"55","region_id":"42","rental_uris":{"ios":"https://dc.lft.to/lastmile_qr_scan","android":"https://dc.lft.to/lastmile_qr_scan"},"has_kiosk":true,"eightd_has_key_dispenser":false,"external_id":"082493a5-1f3f-11e7-bf6b-3863bb334450","capacity":15,"name":"3rd & H St NW","eightd_station_services":[],"electric_bike_surcharge_waiver":false,"rental_methods":["KEY","CREDITCARD"],"lon":-77.015289,"station_type":"classic","short_name":"31604"},{"legacy_id":"56","lat":38.8851,"station_id":"56","region_id":"42","rental_uris":{"ios":"https://dc.lft.to/lastmile_qr_scan","android":"https://dc.lft.to/lastmile_qr_scan"},"has_kiosk":true,"eightd_has_key_dispenser":false,"external_id":"08249407-1f3f-11e7-bf6b-3863bb334450","capacity":11,"name":"3rd & D St SE","eightd_station_services":[],"electric_bike_surcharge_waiver":false,"rental_methods":["KEY","CREDITCARD"],"lon":-77.0023,"station_type":"classic","short_name":"31605"},{"legacy_id":"57","lat":38.8803,"station_id":"57","region_id":"42","rental_uris":{"ios":"https://dc.lft.to/lastmile_qr_scan","android":"https://dc.lft.to/lastmile_qr_scan"},"has_kiosk":true,"eightd_has_key_dispenser":false,"external_id":"08249480-1f3f-11e7-bf6b-3863bb334450","capacity":15,"name":"Potomac & Pennsylvania Ave SE","eightd_station_services":[],"electric_bike_surcharge_waiver":false,"rental_methods":["KEY","CREDITCARD"],"lon":-76.9862,"station_type":"classic","short_name":"31606"},{"legacy_id":"58","lat":38.88291548476762,"station_id":"58","region_id":"42","rental_uris":{"ios":"https://dc.lft.to/lastmile_qr_scan","android":"https://dc.lft.to/lastmile_qr_scan"},"has_kiosk":true,"eightd_has_key_dispenser":false,"external_id":"082494e7-1f3f-11e7-bf6b-3863bb334450","capacity":15,"name":"13th & E St SE","eightd_station_services":[],"electric_bike_surcharge_waiver":false,"rental_methods":["KEY","CREDITCARD"],"lon":-76.98790669441223,"station_type":"classic","short_name":"31607"},{"legacy_id":"59","lat":38.9121,"station_id":"59","region_id":"42","rental_uris":{"ios":"https://dc.lft.to/lastmile_qr_scan","android":"https://dc.lft.to/lastmile_qr_scan"},"has_kiosk":true,"eightd_has_key_dispenser":false,"external_id":"08249549-1f3f-11e7-bf6b-3863bb334450","capacity":19,"name":"17th & Corcoran St NW","eightd_station_services":[],"electric_bike_surcharge_waiver":false,"rental_methods":["KEY","CREDITCARD"],"lon":-77.0387,"station_type":"classic","short_name":"31214"},{"legacy_id":"60","lat":38.944551,"station_id":"60","region_id":"42","rental_uris":{"ios":"https://dc.lft.to/lastmile_qr_scan","android":"https://dc.lft.to/lastmile_qr_scan"},"has_kiosk":true,"eightd_has_key_dispenser":false,"external_id":"082495aa-1f3f-11e7-bf6b-3863bb334450","capacity":15,"name":"Van Ness Metro / UDC","eightd_station_services":[],"electric_bike_surcharge_waiver":false,"rental_methods":["KEY","CREDITCARD"],"lon":-77.063896,"station_type":"classic","short_name":"31300"},{"legacy_id":"61","lat":38.9126,"station_id":"61","region_id":"42","rental_uris":{"ios":"https://dc.lft.to/lastmile_qr_scan","android":"https://dc.lft.to/lastmile_qr_scan"},"has_kiosk":true,"eightd_has_key_dispenser":false,"external_id":"0824960b-1f3f-11e7-bf6b-3863bb334450","capacity":15,"name":"Florida Ave & R St NW","eightd_station_services":[],"electric_bike_surcharge_waiver":false,"rental_methods":["KEY","CREDITCARD"],"lon":-77.0135,"station_type":"classic","short_name":"31503"},{"legacy_id":"62","lat":38.8792,"station_id":"62","region_id":"42","rental_uris":{"ios":"https://dc.lft.to/lastmile_qr_scan","android":"https://dc.lft.to/lastmile_qr_scan"},"has_kiosk":true,"eightd_has_key_dispenser":false,"external_id":"08249671-1f3f-11e7-bf6b-3863bb334450","capacity":11,"name":"8th & Eye St SE / Barracks Row","eightd_station_services":[],"electric_bike_surcharge_waiver":false,"rental_methods":["KEY","CREDITCARD"],"lon":-76.9953,"station_type":"classic","short_name":"31608"},{"legacy_id":"63","lat":38.938736,"station_id":"63","region_id":"42","rental_uris":{"ios":"https://dc.lft.to/lastmile_qr_scan","android":"https://dc.lft.to/lastmile_qr_scan"},"has_kiosk":true,"eightd_has_key_dispenser":false,"external_id":"082496d9-1f3f-11e7-bf6b-3863bb334450","capacity":15,"name":"Ward Circle / American University","eightd_station_services":[],"electric_bike_surcharge_waiver":false,"rental_methods":["KEY","CREDITCARD"],"lon":-77.087171,"station_type":"classic","short_name":"31301"},{"legacy_id":"64","lat":38.934881,"station_id":"64","region_id":"42","rental_uris":{"ios":"https://dc.lft.to/lastmile_qr_scan","android":"https://dc.lft.to/lastmile_qr_scan"},"has_kiosk":true,"eightd_has_key_dispenser":false,"external_id":"0824973c-1f3f-11e7-bf6b-3863bb334450","capacity":19,"name":"Wisconsin Ave & Newark St NW","eightd_station_services":[],"electric_bike_surcharge_waiver":false,"rental_methods":["KEY","CREDITCARD"],"lon":-77.072755,"station_type":"classic","short_name":"31302"},{"legacy_id":"65","lat":38.947774,"station_id":"65","region_id":"42","rental_uris":{"ios":"https://dc.lft.to/lastmile_qr_scan","android":"https://dc.lft.to/lastmile_qr_scan"},"has_kiosk":true,"eightd_has_key_dispenser":false,"external_id":"0824979f-1f3f-11e7-bf6b-3863bb334450","capacity":11,"name":"14th St Heights / 14th & Crittenden St NW","eightd_station_services":[],"electric_bike_surcharge_waiver":false,"rental_methods":["KEY","CREDITCARD"],"lon":-77.032818,"station_type":"classic","short_name":"31402"},{"legacy_id":"66","lat":38.865784,"station_id":"66","region_id":"42","rental_uris":{"ios":"https://dc.lft.to/lastmile_qr_scan","android":"https://dc.lft.to/lastmile_qr_scan"},"has_kiosk":true,"eightd_has_key_dispenser":false,"external_id":"0824980b-1f3f-11e7-bf6b-3863bb334450","capacity":11,"name":"Anacostia Library","eightd_station_services":[],"electric_bike_surcharge_waiver":false,"rental_methods":["KEY","CREDITCARD"],"lon":-76.9784,"station_type":"classic","short_name":"31804"},{"legacy_id":"67","lat":38.873057,"station_id":"67","region_id":"42","rental_uris":{"ios":"https://dc.lft.to/lastmile_qr_scan","android":"https://dc.lft.to/lastmile_qr_scan"},"has_kiosk":true,"eightd_has_key_dispenser":false,"external_id":"082498ac-1f3f-11e7-bf6b-3863bb334450","capacity":11,"name":"Pennsylvania & Minnesota Ave SE","eightd_station_services":[],"electric_bike_surcharge_waiver":false,"rental_methods":["KEY","CREDITCARD"],"lon":-76.971015,"station_type":"classic","short_name":"31805"},{"legacy_id":"68","lat":38.886952,"station_id":"68","region_id":"42","rental_uris":{"ios":"https://dc.lft.to/lastmile_qr_scan","android":"https://dc.lft.to/lastmile_qr_scan"},"has_kiosk":true,"eightd_has_key_dispenser":false,"external_id":"08249a1c-1f3f-11e7-bf6b-3863bb334450","capacity":15,"name":"Eastern Market / 7th & North Carolina Ave SE","eightd_station_services":[],"electric_bike_surcharge_waiver":false,"rental_methods":["KEY","CREDITCARD"],"lon":-76.996806,"station_type":"classic","short_name":"31610"},{"legacy_id":"69","lat":38.899632,"station_id":"69","region_id":"42","rental_uris":{"ios":"https://dc.lft.to/lastmile_qr_scan","android":"https://dc.lft.to/lastmile_qr_scan"},"has_kiosk":true,"eightd_has_key_dispenser":false,"external_id":"08249aa2-1f3f-11e7-bf6b-3863bb334450","capacity":23,"name":"14th St & New York Ave NW","eightd_station_services":[],"electric_bike_surcharge_waiver":false,"rental_methods":["KEY","CREDITCARD"],"lon":-77.031686,"station_type":"classic","short_name":"31216"},{"legacy_id":"70","lat":38.894,"station_id":"70","region_id":"42","rental_uris":{"ios":"https://dc.lft.to/lastmile_qr_scan","android":"https://dc.lft.to/lastmile_qr_scan"},"has_kiosk":true,"eightd_has_key_dispenser":false,"external_id":"08249b10-1f3f-11e7-bf6b-3863bb334450","capacity":11,"name":"Benning Branch Library","eightd_station_services":[],"electric_bike_surcharge_waiver":false,"rental_methods":["KEY","CREDITCARD"],"lon":-76.947974,"station_type":"classic","short_name":"31705"},{"legacy_id":"71","lat":38.88627694506511,"station_id":"71","region_id":"42","rental_uris":{"ios":"https://dc.lft.to/lastmile_qr_scan","android":"https://dc.lft.to/lastmile_qr_scan"},"has_kiosk":true,"eightd_has_key_dispenser":false,"external_id":"08249b7f-1f3f-11e7-bf6b-3863bb334450","capacity":39,"name":"USDA / 12th & C St SW","eightd_station_services":[],"electric_bike_surcharge_waiver":false,"rental_methods":["KEY","CREDITCARD"],"lon":-77.02824175357819,"station_type":"classic","short_name":"31217"},{"legacy_id":"72","lat":38.902314,"station_id":"72","region_id":"42","rental_uris":{"ios":"https://dc.lft.to/lastmile_qr_scan","android":"https://dc.lft.to/lastmile_qr_scan"},"has_kiosk":true,"eightd_has_key_dispenser":false,"external_id":"08249be7-1f3f-11e7-bf6b-3863bb334450","capacity":19,"name":"Georgetown Harbor / 30th St NW","eightd_station_services":[],"electric_bike_surcharge_waiver":false,"rental_methods":["KEY","CREDITCARD"],"lon":-77.0591415,"station_type":"classic","short_name":"31215"},{"legacy_id":"73","lat":38.933668,"station_id":"73","region_id":"42","rental_uris":{"ios":"https://dc.lft.to/lastmile_qr_scan","android":"https://dc.lft.to/lastmile_qr_scan"},"has_kiosk":true,"eightd_has_key_dispenser":false,"external_id":"08249c5a-1f3f-11e7-bf6b-3863bb334450","capacity":11,"name":"12th & Newton St NE","eightd_station_services":[],"electric_bike_surcharge_waiver":false,"rental_methods":["KEY","CREDITCARD"],"lon":-76.991016,"station_type":"classic","short_name":"31501"},{"legacy_id":"74","lat":38.894919,"station_id":"74","region_id":"42","rental_uris":{"ios":"https://dc.lft.to/lastmile_qr_scan","android":"https://dc.lft.to/lastmile_qr_scan"},"has_kiosk":true,"eightd_has_key_dispenser":false,"external_id":"08249cd3-1f3f-11e7-bf6b-3863bb334450","capacity":15,"name":"US Dept of State / Virginia Ave & 21st St NW","eightd_station_services":[],"electric_bike_surcharge_waiver":false,"rental_methods":["KEY","CREDITCARD"],"lon":-77.046587,"station_type":"classic","short_name":"31220"},{"legacy_id":"75","lat":38.886266,"station_id":"75","region_id":"42","rental_uris":{"ios":"https://dc.lft.to/lastmile_qr_scan","android":"https://dc.lft.to/lastmile_qr_scan"},"has_kiosk":true,"eightd_has_key_dispenser":false,"external_id":"08249d44-1f3f-11e7-bf6b-3863bb334450","capacity":15,"name":"L'Enfant Plaza / 7th & C St SW","eightd_station_services":[],"electric_bike_surcharge_waiver":false,"rental_methods":["KEY","CREDITCARD"],"lon":-77.022241,"station_type":"classic","short_name":"31218"},{"legacy_id":"76","lat":38.893028,"station_id":"76","region_id":"42","rental_uris":{"ios":"https://dc.lft.to/lastmile_qr_scan","android":"https://dc.lft.to/lastmile_qr_scan"},"has_kiosk":true,"eightd_has_key_dispenser":false,"external_id":"08249dad-1f3f-11e7-bf6b-3863bb334450","capacity":31,"name":"10th St & Constitution Ave NW","eightd_station_services":[],"electric_bike_surcharge_waiver":false,"rental_methods":["KEY","CREDITCARD"],"lon":-77.026013,"station_type":"classic","short_name":"31219"},{"legacy_id":"77","lat":38.897293,"station_id":"77","region_id":"42","rental_uris":{"ios":"https://dc.lft.to/lastmile_qr_scan","android":"https://dc.lft.to/lastmile_qr_scan"},"has_kiosk":true,"eightd_has_key_dispenser":false,"external_id":"08249e19-1f3f-11e7-bf6b-3863bb334450","capacity":19,"name":"Kennedy Center","eightd_station_services":[],"electric_bike_surcharge_waiver":false,"rental_methods":["KEY","CREDITCARD"],"lon":-77.05557,"station_type":"classic","short_name":"31211"},{"legacy_id":"78","lat":38.884260087971725,"station_id":"78","region_id":"42","rental_uris":{"ios":"https://dc.lft.to/lastmile_qr_scan","android":"https://dc.lft.to/lastmile_qr_scan"},"has_kiosk":true,"eightd_has_key_dispenser":false,"external_id":"08249e81-1f3f-11e7-bf6b-3863bb334450","capacity":19,"name":"Eastern Market Metro / Pennsylvania Ave & 8th St SE","eightd_station_services":[],"electric_bike_surcharge_waiver":false,"rental_methods":["KEY","CREDITCARD"],"lon":-76.99473559856415,"station_type":"classic","short_name":"31613"},{"legacy_id":"79","lat":38.90506687455313,"station_id":"79","region_id":"42","rental_uris":{"ios":"https://dc.lft.to/lastmile_qr_scan","android":"https://dc.lft.to/lastmile_qr_scan"},"has_kiosk":true,"eightd_has_key_dispenser":false,"external_id":"08249ef2-1f3f-11e7-bf6b-3863bb334450","capacity":27,"name":"18th & M St NW","eightd_station_services":[],"electric_bike_surcharge_waiver":false,"rental_methods":["KEY","CREDITCARD"],"lon":-77.04177886247635,"station_type":"classic","short_name":"31221"},{"legacy_id":"80","lat":38.947607,"station_id":"80","region_id":"42","rental_uris":{"ios":"https://dc.lft.to/lastmile_qr_scan","android":"https://dc.lft.to/lastmile_qr_scan"},"has_kiosk":true,"eightd_has_key_dispenser":false,"external_id":"08249f58-1f3f-11e7-bf6b-3863bb334450","capacity":15,"name":"Tenleytown / Wisconsin Ave & Albemarle St NW","eightd_station_services":[],"electric_bike_surcharge_waiver":false,"rental_methods":["KEY","CREDITCARD"],"lon":-77.079382,"station_type":"classic","short_name":"31303"},{"legacy_id":"81","lat":38.90042673988099,"station_id":"81","region_id":"42","rental_uris":{"ios":"https://dc.lft.to/lastmile_qr_scan","android":"https://dc.lft.to/lastmile_qr_scan"},"has_kiosk":true,"eightd_has_key_dispenser":false,"external_id":"08249fbc-1f3f-11e7-bf6b-3863bb334450","capacity":27,"name":"13th & H St NE","eightd_station_services":[],"electric_bike_surcharge_waiver":false,"rental_methods":["KEY","CREDITCARD"],"lon":-76.98825001716614,"station_type":"classic","short_name":"31611"},{"legacy_id":"82","lat":38.897222,"station_id":"82","region_id":"42","rental_uris":{"ios":"https://dc.lft.to/lastmile_qr_scan","android":"https://dc.lft.to/lastmile_qr_scan"},"has_kiosk":true,"eightd_has_key_dispenser":false,"external_id":"0824a28b-1f3f-11e7-bf6b-3863bb334450","capacity":31,"name":"5th & F St NW","eightd_station_services":[],"electric_bike_surcharge_waiver":false,"rental_methods":["KEY","CREDITCARD"],"lon":-77.019347,"station_type":"classic","short_name":"31620"},{"legacy_id":"83","lat":38.89903234416315,"station_id":"83","region_id":"42","rental_uris":{"ios":"https://dc.lft.to/lastmile_qr_scan","android":"https://dc.lft.to/lastmile_qr_scan"},"has_kiosk":true,"eightd_has_key_dispenser":false,"external_id":"0824a43b-1f3f-11e7-bf6b-3863bb334450","capacity":19,"name":"New York Ave & 15th St NW","eightd_station_services":[],"electric_bike_surcharge_waiver":false,"rental_methods":["KEY","CREDITCARD"],"lon":-77.03335404396057,"station_type":"classic","short_name":"31222"},{"legacy_id":"84","lat":38.905737,"station_id":"84","region_id":"42","rental_uris":{"ios":"https://dc.lft.to/lastmile_qr_scan","android":"https://dc.lft.to/lastmile_qr_scan"},"has_kiosk":true,"eightd_has_key_dispenser":false,"external_id":"0824a4ce-1f3f-11e7-bf6b-3863bb334450","capacity":23,"name":"Convention Center / 7th & M St NW","eightd_station_services":[],"electric_bike_surcharge_waiver":false,"rental_methods":["KEY","CREDITCARD"],"lon":-77.02227,"station_type":"classic","short_name":"31223"},{"legacy_id":"85","lat":38.927872,"station_id":"85","region_id":"42","rental_uris":{"ios":"https://dc.lft.to/lastmile_qr_scan","android":"https://dc.lft.to/lastmile_qr_scan"},"has_kiosk":true,"eightd_has_key_dispenser":false,"external_id":"0824a53f-1f3f-11e7-bf6b-3863bb334450","capacity":15,"name":"Harvard St & Adams Mill Rd NW","eightd_station_services":[],"electric_bike_surcharge_waiver":false,"rental_methods":["KEY","CREDITCARD"],"lon":-77.043358,"station_type":"classic","short_name":"31112"},{"legacy_id":"86","lat":38.903741450919384,"station_id":"86","region_id":"42","rental_uris":{"ios":"https://dc.lft.to/lastmile_qr_scan","android":"https://dc.lft.to/lastmile_qr_scan"},"has_kiosk":true,"eightd_has_key_dispenser":false,"external_id":"0824a5b0-1f3f-11e7-bf6b-3863bb334450","capacity":19,"name":"18th & L St NW","eightd_station_services":[],"electric_bike_surcharge_waiver":false,"rental_methods":["KEY","CREDITCARD"],"lon":-77.04245209693909,"station_type":"classic","short_name":"31224"},{"legacy_id":"87","lat":38.90375,"station_id":"87","region_id":"42","rental_uris":{"ios":"https://dc.lft.to/lastmile_qr_scan","android":"https://dc.lft.to/lastmile_qr_scan"},"has_kiosk":true,"eightd_has_key_dispenser":false,"external_id":"0824a623-1f3f-11e7-bf6b-3863bb334450","capacity":23,"name":"C & O Canal & Wisconsin Ave NW","eightd_station_services":[],"electric_bike_surcharge_waiver":false,"rental_methods":["KEY","CREDITCARD"],"lon":-77.06269,"station_type":"classic","short_name":"31225"},{"legacy_id":"88","lat":38.878693599396954,"station_id":"88","region_id":"42","rental_uris":{"ios":"https://dc.lft.to/lastmile_qr_scan","android":"https://dc.lft.to/lastmile_qr_scan"},"has_kiosk":true,"eightd_has_key_dispenser":false,"external_id":"0824a68f-1f3f-11e7-bf6b-3863bb334450","capacity":19,"name":"Maine Ave & 7th St SW","eightd_station_services":[],"electric_bike_surcharge_waiver":false,"rental_methods":["KEY","CREDITCARD"],"lon":-77.02305436134338,"station_type":"classic","short_name":"31609"},{"legacy_id":"89","lat":38.894758,"station_id":"89","region_id":"42","rental_uris":{"ios":"https://dc.lft.to/lastmile_qr_scan","android":"https://dc.lft.to/lastmile_qr_scan"},"has_kiosk":true,"eightd_has_key_dispenser":false,"external_id":"0824a703-1f3f-11e7-bf6b-3863bb334450","capacity":23,"name":"D St & Maryland Ave NE","eightd_station_services":[],"electric_bike_surcharge_waiver":false,"rental_methods":["KEY","CREDITCARD"],"lon":-76.997114,"station_type":"classic","short_name":"31612"},{"legacy_id":"90","lat":38.916442,"station_id":"90","region_id":"42","rental_uris":{"ios":"https://dc.lft.to/lastmile_qr_scan","android":"https://dc.lft.to/lastmile_qr_scan"},"has_kiosk":true,"eightd_has_key_dispenser":false,"external_id":"0824a988-1f3f-11e7-bf6b-3863bb334450","capacity":11,"name":"34th St & Wisconsin Ave NW","eightd_station_services":[],"electric_bike_surcharge_waiver":false,"rental_methods":["KEY","CREDITCARD"],"lon":-77.0682,"station_type":"classic","short_name":"31226"},{"legacy_id":"91","lat":38.900283,"station_id":"91","region_id":"42","rental_uris":{"ios":"https://dc.lft.to/lastmile_qr_scan","android":"https://dc.lft.to/lastmile_qr_scan"},"has_kiosk":true,"eightd_has_key_dispenser":false,"external_id":"0824aa39-1f3f-11e7-bf6b-3863bb334450","capacity":23,"name":"13th St & New York Ave NW","eightd_station_services":[],"electric_bike_surcharge_waiver":false,"rental_methods":["KEY","CREDITCARD"],"lon":-77.029822,"station_type":"classic","short_name":"31227"},{"legacy_id":"92","lat":38.8997,"station_id":"92","region_id":"42","rental_uris":{"ios":"https://dc.lft.to/lastmile_qr_scan","android":"https://dc.lft.to/lastmile_qr_scan"},"has_kiosk":true,"eightd_has_key_dispenser":false,"external_id":"0824b9cc-1f3f-11e7-bf6b-3863bb334450","capacity":33,"name":"8th & H St NW","eightd_station_services":[],"electric_bike_surcharge_waiver":false,"rental_methods":["KEY","CREDITCARD"],"lon":-77.023086,"station_type":"classic","short_name":"31228"},{"legacy_id":"93","lat":38.932514,"station_id":"93","region_id":"42","rental_uris":{"ios":"https://dc.lft.to/lastmile_qr_scan","android":"https://dc.lft.to/lastmile_qr_scan"},"has_kiosk":true,"eightd_has_key_dispenser":false,"external_id":"0824bb59-1f3f-11e7-bf6b-3863bb334450","capacity":15,"name":"10th & Monroe St NE","eightd_station_services":[],"electric_bike_surcharge_waiver":false,"rental_methods":["KEY","CREDITCARD"],"lon":-76.992889,"station_type":"classic","short_name":"31504"},{"legacy_id":"94","lat":38.910972,"station_id":"94","region_id":"42","rental_uris":{"ios":"https://dc.lft.to/lastmile_qr_scan","android":"https://dc.lft.to/lastmile_qr_scan"},"has_kiosk":true,"eightd_has_key_dispenser":false,"external_id":"0824bc00-1f3f-11e7-bf6b-3863bb334450","capacity":23,"name":"Eckington Pl & Q St NE","eightd_station_services":[],"electric_bike_surcharge_waiver":false,"rental_methods":["KEY","CREDITCARD"],"lon":-77.00495,"station_type":"classic","short_name":"31505"},{"legacy_id":"95","lat":38.899972,"station_id":"95","region_id":"42","rental_uris":{"ios":"https://dc.lft.to/lastmile_qr_scan","android":"https://dc.lft.to/lastmile_qr_scan"},"has_kiosk":true,"eightd_has_key_dispenser":false,"external_id":"0824bc70-1f3f-11e7-bf6b-3863bb334450","capacity":23,"name":"6th & H St NE","eightd_station_services":[],"electric_bike_surcharge_waiver":false,"rental_methods":["KEY","CREDITCARD"],"lon":-76.998347,"station_type":"classic","short_name":"31615"},{"legacy_id":"96","lat":38.900412,"station_id":"96","region_id":"42","rental_uris":{"ios":"https://dc.lft.to/lastmile_qr_scan","android":"https://dc.lft.to/lastmile_qr_scan"},"has_kiosk":true,"eightd_has_key_dispenser":false,"external_id":"0824bce1-1f3f-11e7-bf6b-3863bb334450","capacity":19,"name":"3rd & H St NE","eightd_station_services":[],"electric_bike_surcharge_waiver":false,"rental_methods":["KEY","CREDITCARD"],"lon":-77.001949,"station_type":"classic","short_name":"31616"},{"legacy_id":"97","lat":38.900413,"station_id":"97","region_id":"42","rental_uris":{"ios":"https://dc.lft.to/lastmile_qr_scan","android":"https://dc.lft.to/lastmile_qr_scan"},"has_kiosk":true,"eightd_has_key_dispenser":false,"external_id":"0824c0d5-1f3f-11e7-bf6b-3863bb334450","capacity":15,"name":"Bladensburg Rd & Benning Rd NE","eightd_station_services":[],"electric_bike_surcharge_waiver":false,"rental_methods":["KEY","CREDITCARD"],"lon":-76.982872,"station_type":"classic","short_name":"31617"},{"legacy_id":"98","lat":38.889955,"station_id":"98","region_id":"42","rental_uris":{"ios":"https://dc.lft.to/lastmile_qr_scan","android":"https://dc.lft.to/lastmile_qr_scan"},"has_kiosk":true,"eightd_has_key_dispenser":false,"external_id":"0824c1a1-1f3f-11e7-bf6b-3863bb334450","capacity":11,"name":"4th & East Capitol St NE","eightd_station_services":[],"electric_bike_surcharge_waiver":false,"rental_methods":["KEY","CREDITCARD"],"lon":-77.000349,"station_type":"classic","short_name":"31618"},{"legacy_id":"99","lat":38.890461,"station_id":"99","region_id":"42","rental_uris":{"ios":"https://dc.lft.to/lastmile_qr_scan","android":"https://dc.lft.to/lastmile_qr_scan"},"has_kiosk":true,"eightd_has_key_dispenser":false,"external_id":"0824c229-1f3f-11e7-bf6b-3863bb334450","capacity":25,"name":"Lincoln Park / 13th & East Capitol St NE ","eightd_station_services":[],"electric_bike_surcharge_waiver":false,"rental_methods":["KEY","CREDITCARD"],"lon":-76.988355,"station_type":"classic","short_name":"31619"},{"legacy_id":"100","lat":38.8692,"station_id":"100","region_id":"42","rental_uris":{"ios":"https://dc.lft.to/lastmile_qr_scan","android":"https://dc.lft.to/lastmile_qr_scan"},"has_kiosk":true,"eightd_has_key_dispenser":false,"external_id":"0824c29d-1f3f-11e7-bf6b-3863bb334450","capacity":11,"name":"Branch & Pennsylvania Ave SE","eightd_station_services":[],"electric_bike_surcharge_waiver":false,"rental_methods":["KEY","CREDITCARD"],"lon":-76.9599,"station_type":"classic","short_name":"31701"},{"legacy_id":"101","lat":38.894832,"station_id":"101","region_id":"42","rental_uris":{"ios":"https://dc.lft.to/lastmile_qr_scan","android":"https://dc.lft.to/lastmile_qr_scan"},"has_kiosk":true,"eightd_has_key_dispenser":false,"external_id":"0824c309-1f3f-11e7-bf6b-3863bb334450","capacity":31,"name":"13th & D St NE","eightd_station_services":[],"electric_bike_surcharge_waiver":false,"rental_methods":["KEY","CREDITCARD"],"lon":-76.987633,"station_type":"classic","short_name":"31622"},{"legacy_id":"102","lat":38.915544,"station_id":"102","region_id":"42","rental_uris":{"ios":"https://dc.lft.to/lastmile_qr_scan","android":"https://dc.lft.to/lastmile_qr_scan"},"has_kiosk":true,"eightd_has_key_dispenser":false,"external_id":"0824c376-1f3f-11e7-bf6b-3863bb334450","capacity":23,"name":"New Hampshire Ave & T St NW","eightd_station_services":[],"electric_bike_surcharge_waiver":false,"rental_methods":["KEY","CREDITCARD"],"lon":-77.038252,"station_type":"classic","short_name":"31229"},{"legacy_id":"103","lat":38.898364,"station_id":"103","region_id":"42","rental_uris":{"ios":"https://dc.lft.to/lastmile_qr_scan","android":"https://dc.lft.to/lastmile_qr_scan"},"has_kiosk":true,"eightd_has_key_dispenser":false,"external_id":"0824c604-1f3f-11e7-bf6b-3863bb334450","capacity":39,"name":"Metro Center / 12th & G St NW","eightd_station_services":[],"electric_bike_surcharge_waiver":false,"rental_methods":["KEY","CREDITCARD"],"lon":-77.027869,"station_type":"classic","short_name":"31230"},{"legacy_id":"104","lat":38.894514,"station_id":"104","region_id":"42","rental_uris":{"ios":"https://dc.lft.to/lastmile_qr_scan","android":"https://dc.lft.to/lastmile_qr_scan"},"has_kiosk":true,"eightd_has_key_dispenser":false,"external_id":"0824c69b-1f3f-11e7-bf6b-3863bb334450","capacity":25,"name":"14th & D St NW / Ronald Reagan Building","eightd_station_services":[],"electric_bike_surcharge_waiver":false,"rental_methods":["KEY","CREDITCARD"],"lon":-77.031617,"station_type":"classic","short_name":"31231"},{"legacy_id":"105","lat":38.89728304853854,"station_id":"105","region_id":"42","rental_uris":{"ios":"https://dc.lft.to/lastmile_qr_scan","android":"https://dc.lft.to/lastmile_qr_scan"},"has_kiosk":true,"eightd_has_key_dispenser":false,"external_id":"0824c772-1f3f-11e7-bf6b-3863bb334450","capacity":27,"name":"7th & F St NW / National Portrait Gallery","eightd_station_services":[],"electric_bike_surcharge_waiver":false,"rental_methods":["KEY","CREDITCARD"],"lon":-77.02219069004059,"station_type":"classic","short_name":"31232"},{"legacy_id":"106","lat":38.902061,"station_id":"106","region_id":"42","rental_uris":{"ios":"https://dc.lft.to/lastmile_qr_scan","android":"https://dc.lft.to/lastmile_qr_scan"},"has_kiosk":true,"eightd_has_key_dispenser":false,"external_id":"0824c80d-1f3f-11e7-bf6b-3863bb334450","capacity":35,"name":"17th & K St NW / Farragut Square","eightd_station_services":[],"electric_bike_surcharge_waiver":false,"rental_methods":["KEY","CREDITCARD"],"lon":-77.038322,"station_type":"classic","short_name":"31233"},{"legacy_id":"107","lat":38.908905,"station_id":"107","region_id":"42","rental_uris":{"ios":"https://dc.lft.to/lastmile_qr_scan","android":"https://dc.lft.to/lastmile_qr_scan"},"has_kiosk":true,"eightd_has_key_dispenser":false,"external_id":"0824c8d2-1f3f-11e7-bf6b-3863bb334450","capacity":19,"name":"20th & O St NW / Dupont South","eightd_station_services":[],"electric_bike_surcharge_waiver":false,"rental_methods":["KEY","CREDITCARD"],"lon":-77.04478,"station_type":"classic","short_name":"31234"},{"legacy_id":"108","lat":38.895344,"station_id":"108","region_id":"42","rental_uris":{"ios":"https://dc.lft.to/lastmile_qr_scan","android":"https://dc.lft.to/lastmile_qr_scan"},"has_kiosk":true,"eightd_has_key_dispenser":false,"external_id":"0824cb9b-1f3f-11e7-bf6b-3863bb334450","capacity":15,"name":"4th & D St NW / Judiciary Square","eightd_station_services":[],"electric_bike_surcharge_waiver":false,"rental_methods":["KEY","CREDITCARD"],"lon":-77.016106,"station_type":"classic","short_name":"31621"},{"legacy_id":"109","lat":38.8923,"station_id":"109","region_id":"42","rental_uris":{"ios":"https://dc.lft.to/lastmile_qr_scan","android":"https://dc.lft.to/lastmile_qr_scan"},"has_kiosk":true,"eightd_has_key_dispenser":false,"external_id":"0824cd3d-1f3f-11e7-bf6b-3863bb334450","capacity":35,"name":"19th St & Constitution Ave NW","eightd_station_services":[],"electric_bike_surcharge_waiver":false,"rental_methods":["KEY","CREDITCARD"],"lon":-77.0436,"station_type":"classic","short_name":"31235"},{"legacy_id":"110","lat":38.90774,"station_id":"110","region_id":"42","rental_uris":{"ios":"https://dc.lft.to/lastmile_qr_scan","android":"https://dc.lft.to/lastmile_qr_scan"},"has_kiosk":true,"eightd_has_key_dispenser":false,"external_id":"0824cdb0-1f3f-11e7-bf6b-3863bb334450","capacity":23,"name":"37th & O St NW / Georgetown University","eightd_station_services":[],"electric_bike_surcharge_waiver":false,"rental_methods":["KEY","CREDITCARD"],"lon":-77.071652,"station_type":"classic","short_name":"31236"},{"legacy_id":"111","lat":38.899983,"station_id":"111","region_id":"42","rental_uris":{"ios":"https://dc.lft.to/lastmile_qr_scan","android":"https://dc.lft.to/lastmile_qr_scan"},"has_kiosk":true,"eightd_has_key_dispenser":false,"external_id":"0824ce14-1f3f-11e7-bf6b-3863bb334450","capacity":19,"name":"11th & H St NE","eightd_station_services":[],"electric_bike_surcharge_waiver":false,"rental_methods":["KEY","CREDITCARD"],"lon":-76.991383,"station_type":"classic","short_name":"31614"},{"legacy_id":"112","lat":38.903827,"station_id":"112","region_id":"42","rental_uris":{"ios":"https://dc.lft.to/lastmile_qr_scan","android":"https://dc.lft.to/lastmile_qr_scan"},"has_kiosk":true,"eightd_has_key_dispenser":false,"external_id":"0824cfe7-1f3f-11e7-bf6b-3863bb334450","capacity":15,"name":"25th St & Pennsylvania Ave NW","eightd_station_services":[],"electric_bike_surcharge_waiver":false,"rental_methods":["KEY","CREDITCARD"],"lon":-77.053485,"station_type":"classic","short_name":"31237"},{"legacy_id":"113","lat":38.89696,"station_id":"113","region_id":"42","rental_uris":{"ios":"https://dc.lft.to/lastmile_qr_scan","android":"https://dc.lft.to/lastmile_qr_scan"},"has_kiosk":true,"eightd_has_key_dispenser":false,"external_id":"0824d0c6-1f3f-11e7-bf6b-3863bb334450","capacity":55,"name":"Columbus Circle / Union Station","eightd_station_services":[],"electric_bike_surcharge_waiver":false,"rental_methods":["KEY","CREDITCARD"],"lon":-77.00493,"station_type":"classic","short_name":"31623"},{"legacy_id":"114","lat":38.897446,"station_id":"114","region_id":"42","rental_uris":{"ios":"https://dc.lft.to/lastmile_qr_scan","android":"https://dc.lft.to/lastmile_qr_scan"},"has_kiosk":true,"eightd_has_key_dispenser":false,"external_id":"0824d140-1f3f-11e7-bf6b-3863bb334450","capacity":23,"name":"North Capitol St & F St NW","eightd_station_services":[],"electric_bike_surcharge_waiver":false,"rental_methods":["KEY","CREDITCARD"],"lon":-77.009888,"station_type":"classic","short_name":"31624"},{"legacy_id":"115","lat":38.9055785,"station_id":"115","region_id":"42","rental_uris":{"ios":"https://dc.lft.to/lastmile_qr_scan","android":"https://dc.lft.to/lastmile_qr_scan"},"has_kiosk":true,"eightd_has_key_dispenser":false,"external_id":"0824de05-1f3f-11e7-bf6b-3863bb334450","capacity":19,"name":"11th & M St NW","eightd_station_services":[],"electric_bike_surcharge_waiver":false,"rental_methods":["KEY","CREDITCARD"],"lon":-77.027313,"station_type":"classic","short_name":"31266"},{"legacy_id":"116","lat":38.922581,"station_id":"116","region_id":"42","rental_uris":{"ios":"https://dc.lft.to/lastmile_qr_scan","android":"https://dc.lft.to/lastmile_qr_scan"},"has_kiosk":true,"eightd_has_key_dispenser":false,"external_id":"0824e189-1f3f-11e7-bf6b-3863bb334450","capacity":15,"name":"36th & Calvert St NW / Glover Park","eightd_station_services":[],"electric_bike_surcharge_waiver":false,"rental_methods":["KEY","CREDITCARD"],"lon":-77.070334,"station_type":"classic","short_name":"31304"},{"legacy_id":"117","lat":38.898409,"station_id":"117","region_id":"42","rental_uris":{"ios":"https://dc.lft.to/lastmile_qr_scan","android":"https://dc.lft.to/lastmile_qr_scan"},"has_kiosk":true,"eightd_has_key_dispenser":false,"external_id":"0824e24c-1f3f-11e7-bf6b-3863bb334450","capacity":23,"name":"14th & G St NW","eightd_station_services":[],"electric_bike_surcharge_waiver":false,"rental_methods":["KEY","CREDITCARD"],"lon":-77.032278,"station_type":"classic","short_name":"31238"},{"legacy_id":"118","lat":38.844015,"station_id":"118","region_id":"41","rental_uris":{"ios":"https://dc.lft.to/lastmile_qr_scan","android":"https://dc.lft.to/lastmile_qr_scan"},"has_kiosk":true,"eightd_has_key_dispenser":false,"external_id":"0824e2e3-1f3f-11e7-bf6b-3863bb334450","capacity":23,"name":"Potomac Ave & 35th St S","eightd_station_services":[],"electric_bike_surcharge_waiver":false,"rental_methods":["KEY","CREDITCARD"],"lon":-77.050537,"station_type":"classic","short_name":"31052"},{"legacy_id":"124","lat":38.88412,"station_id":"124","region_id":"42","rental_uris":{"ios":"https://dc.lft.to/lastmile_qr_scan","android":"https://dc.lft.to/lastmile_qr_scan"},"has_kiosk":true,"eightd_has_key_dispenser":false,"external_id":"0824e68d-1f3f-11e7-bf6b-3863bb334450","capacity":31,"name":"Ohio Dr & West Basin Dr SW / MLK & FDR Memorials","eightd_station_services":[],"electric_bike_surcharge_waiver":false,"rental_methods":["KEY","CREDITCARD"],"lon":-77.04657,"station_type":"classic","short_name":"31240"},{"legacy_id":"125","lat":38.897857,"station_id":"125","region_id":"42","rental_uris":{"ios":"https://dc.lft.to/lastmile_qr_scan","android":"https://dc.lft.to/lastmile_qr_scan"},"has_kiosk":true,"eightd_has_key_dispenser":false,"external_id":"0824e72a-1f3f-11e7-bf6b-3863bb334450","capacity":15,"name":"11th & F St NW","eightd_station_services":[],"electric_bike_surcharge_waiver":false,"rental_methods":["KEY","CREDITCARD"],"lon":-77.026975,"station_type":"classic","short_name":"31262"},{"legacy_id":"126","lat":38.896104,"station_id":"126","region_id":"42","rental_uris":{"ios":"https://dc.lft.to/lastmile_qr_scan","android":"https://dc.lft.to/lastmile_qr_scan"},"has_kiosk":true,"eightd_has_key_dispenser":false,"external_id":"0824e7c1-1f3f-11e7-bf6b-3863bb334450","capacity":19,"name":"23rd & E St NW ","eightd_station_services":[],"electric_bike_surcharge_waiver":false,"rental_methods":["KEY","CREDITCARD"],"lon":-77.049882,"station_type":"classic","short_name":"31260"},{"legacy_id":"127","lat":38.897315,"station_id":"127","region_id":"41","rental_uris":{"ios":"https://dc.lft.to/lastmile_qr_scan","android":"https://dc.lft.to/lastmile_qr_scan"},"has_kiosk":true,"eightd_has_key_dispenser":false,"external_id":"0824ea2c-1f3f-11e7-bf6b-3863bb334450","capacity":27,"name":"Lynn St & 19th St North","eightd_station_services":[],"electric_bike_surcharge_waiver":false,"rental_methods":["KEY","CREDITCARD"],"lon":-77.070993,"station_type":"classic","short_name":"31014"},{"legacy_id":"128","lat":38.8946,"station_id":"128","region_id":"41","rental_uris":{"ios":"https://dc.lft.to/lastmile_qr_scan","android":"https://dc.lft.to/lastmile_qr_scan"},"has_kiosk":true,"eightd_has_key_dispenser":false,"external_id":"0824eb1b-1f3f-11e7-bf6b-3863bb334450","capacity":19,"name":"Rosslyn Metro / Wilson Blvd & Ft Myer Dr","eightd_station_services":[],"electric_bike_surcharge_waiver":false,"rental_methods":["KEY","CREDITCARD"],"lon":-77.072305,"station_type":"classic","short_name":"31015"},{"legacy_id":"129","lat":38.893438,"station_id":"129","region_id":"41","rental_uris":{"ios":"https://dc.lft.to/lastmile_qr_scan","android":"https://dc.lft.to/lastmile_qr_scan"},"has_kiosk":true,"eightd_has_key_dispenser":false,"external_id":"0824eba7-1f3f-11e7-bf6b-3863bb334450","capacity":15,"name":"Clarendon Blvd & Pierce St","eightd_station_services":[],"electric_bike_surcharge_waiver":false,"rental_methods":["KEY","CREDITCARD"],"lon":-77.076389,"station_type":"classic","short_name":"31016"},{"legacy_id":"130","lat":38.891696,"station_id":"130","region_id":"41","rental_uris":{"ios":"https://dc.lft.to/lastmile_qr_scan","android":"https://dc.lft.to/lastmile_qr_scan"},"has_kiosk":true,"eightd_has_key_dispenser":false,"external_id":"0824ee0d-1f3f-11e7-bf6b-3863bb334450","capacity":15,"name":"Wilson Blvd & N Uhle St","eightd_station_services":[],"electric_bike_surcharge_waiver":false,"rental_methods":["KEY","CREDITCARD"],"lon":-77.0846,"station_type":"classic","short_name":"31017"},{"legacy_id":"131","lat":38.892164,"station_id":"131","region_id":"41","rental_uris":{"ios":"https://dc.lft.to/lastmile_qr_scan","android":"https://dc.lft.to/lastmile_qr_scan"},"has_kiosk":true,"eightd_has_key_dispenser":false,"external_id":"0824eea3-1f3f-11e7-bf6b-3863bb334450","capacity":11,"name":"Rhodes St & 16th St N","eightd_station_services":[],"electric_bike_surcharge_waiver":false,"rental_methods":["KEY","CREDITCARD"],"lon":-77.079375,"station_type":"classic","short_name":"31018"},{"legacy_id":"132","lat":38.86559,"station_id":"132","region_id":"42","rental_uris":{"ios":"https://dc.lft.to/lastmile_qr_scan","android":"https://dc.lft.to/lastmile_qr_scan"},"has_kiosk":true,"eightd_has_key_dispenser":false,"external_id":"0824f08b-1f3f-11e7-bf6b-3863bb334450","capacity":15,"name":"Fairfax Village","eightd_station_services":[],"electric_bike_surcharge_waiver":false,"rental_methods":["KEY","CREDITCARD"],"lon":-76.952103,"station_type":"classic","short_name":"31706"},{"legacy_id":"133","lat":38.892459,"station_id":"133","region_id":"42","rental_uris":{"ios":"https://dc.lft.to/lastmile_qr_scan","android":"https://dc.lft.to/lastmile_qr_scan"},"has_kiosk":true,"eightd_has_key_dispenser":false,"external_id":"0824f16b-1f3f-11e7-bf6b-3863bb334450","capacity":15,"name":"21st St & Constitution Ave NW","eightd_station_services":[],"electric_bike_surcharge_waiver":false,"rental_methods":["KEY","CREDITCARD"],"lon":-77.046567,"station_type":"classic","short_name":"31261"},{"legacy_id":"134","lat":38.889,"station_id":"134","region_id":"41","rental_uris":{"ios":"https://dc.lft.to/lastmile_qr_scan","android":"https://dc.lft.to/lastmile_qr_scan"},"has_kiosk":true,"eightd_has_key_dispenser":false,"external_id":"0824f3d6-1f3f-11e7-bf6b-3863bb334450","capacity":15,"name":"Wilson Blvd & N Edgewood St","eightd_station_services":[],"electric_bike_surcharge_waiver":false,"rental_methods":["KEY","CREDITCARD"],"lon":-77.0925,"station_type":"classic","short_name":"31019"},{"legacy_id":"135","lat":38.920669,"station_id":"135","region_id":"42","rental_uris":{"ios":"https://dc.lft.to/lastmile_qr_scan","android":"https://dc.lft.to/lastmile_qr_scan"},"has_kiosk":true,"eightd_has_key_dispenser":false,"external_id":"0824f461-1f3f-11e7-bf6b-3863bb334450","capacity":19,"name":"Columbia Rd & Belmont St NW","eightd_station_services":[],"electric_bike_surcharge_waiver":false,"rental_methods":["KEY","CREDITCARD"],"lon":-77.04368,"station_type":"classic","short_name":"31113"},{"legacy_id":"136","lat":38.905995699991145,"station_id":"136","region_id":"42","rental_uris":{"ios":"https://dc.lft.to/lastmile_qr_scan","android":"https://dc.lft.to/lastmile_qr_scan"},"has_kiosk":true,"eightd_has_key_dispenser":false,"external_id":"0824f644-1f3f-11e7-bf6b-3863bb334450","capacity":23,"name":"Rhode Island & Connecticut Ave NW","eightd_station_services":[],"electric_bike_surcharge_waiver":false,"rental_methods":["KEY","CREDITCARD"],"lon":-77.03980207443237,"station_type":"classic","short_name":"31239"},{"legacy_id":"137","lat":38.9059,"station_id":"137","region_id":"42","rental_uris":{"ios":"https://dc.lft.to/lastmile_qr_scan","android":"https://dc.lft.to/lastmile_qr_scan"},"has_kiosk":true,"eightd_has_key_dispenser":false,"external_id":"0824f8a2-1f3f-11e7-bf6b-3863bb334450","capacity":33,"name":"Thomas Circle","eightd_station_services":[],"electric_bike_surcharge_waiver":false,"rental_methods":["KEY","CREDITCARD"],"lon":-77.0325,"station_type":"classic","short_name":"31241"},{"legacy_id":"138","lat":38.8904,"station_id":"138","region_id":"41","rental_uris":{"ios":"https://dc.lft.to/lastmile_qr_scan","android":"https://dc.lft.to/lastmile_qr_scan"},"has_kiosk":true,"eightd_has_key_dispenser":false,"external_id":"0824fb6c-1f3f-11e7-bf6b-3863bb334450","capacity":11,"name":"Wilson Blvd & N Franklin Rd","eightd_station_services":[],"electric_bike_surcharge_waiver":false,"rental_methods":["KEY","CREDITCARD"],"lon":-77.0889,"station_type":"classic","short_name":"31020"},{"legacy_id":"139","lat":38.8881,"station_id":"139","region_id":"41","rental_uris":{"ios":"https://dc.lft.to/lastmile_qr_scan","android":"https://dc.lft.to/lastmile_qr_scan"},"has_kiosk":true,"eightd_has_key_dispenser":false,"external_id":"0824fd71-1f3f-11e7-bf6b-3863bb334450","capacity":15,"name":"Clarendon Blvd & N Fillmore St","eightd_station_services":[],"electric_bike_surcharge_waiver":false,"rental_methods":["KEY","CREDITCARD"],"lon":-77.09308,"station_type":"classic","short_name":"31021"},{"legacy_id":"140","lat":38.88786,"station_id":"140","region_id":"41","rental_uris":{"ios":"https://dc.lft.to/lastmile_qr_scan","android":"https://dc.lft.to/lastmile_qr_scan"},"has_kiosk":true,"eightd_has_key_dispenser":false,"external_id":"0824ff6e-1f3f-11e7-bf6b-3863bb334450","capacity":17,"name":"Clarendon Metro / Wilson Blvd & N Highland St","eightd_station_services":[],"electric_bike_surcharge_waiver":false,"rental_methods":["KEY","CREDITCARD"],"lon":-77.094875,"station_type":"classic","short_name":"31022"},{"legacy_id":"141","lat":38.89968,"station_id":"141","region_id":"42","rental_uris":{"ios":"https://dc.lft.to/lastmile_qr_scan","android":"https://dc.lft.to/lastmile_qr_scan"},"has_kiosk":true,"eightd_has_key_dispenser":false,"external_id":"08250172-1f3f-11e7-bf6b-3863bb334450","capacity":27,"name":"18th St & Pennsylvania Ave NW","eightd_station_services":[],"electric_bike_surcharge_waiver":false,"rental_methods":["KEY","CREDITCARD"],"lon":-77.041539,"station_type":"classic","short_name":"31242"},{"legacy_id":"142","lat":38.88637194054526,"station_id":"142","region_id":"42","rental_uris":{"ios":"https://dc.lft.to/lastmile_qr_scan","android":"https://dc.lft.to/lastmile_qr_scan"},"has_kiosk":true,"eightd_has_key_dispenser":false,"external_id":"08250371-1f3f-11e7-bf6b-3863bb334450","capacity":39,"name":"4th & C St SW","eightd_station_services":[],"electric_bike_surcharge_waiver":false,"rental_methods":["KEY","CREDITCARD"],"lon":-77.01770067214966,"station_type":"classic","short_name":"31243"},{"legacy_id":"143","lat":38.88412,"station_id":"143","region_id":"42","rental_uris":{"ios":"https://dc.lft.to/lastmile_qr_scan","android":"https://dc.lft.to/lastmile_qr_scan"},"has_kiosk":true,"eightd_has_key_dispenser":false,"external_id":"082513a4-1f3f-11e7-bf6b-3863bb334450","capacity":19,"name":"4th & E St SW","eightd_station_services":[],"electric_bike_surcharge_waiver":false,"rental_methods":["KEY","CREDITCARD"],"lon":-77.017445,"station_type":"classic","short_name":"31244"},{"legacy_id":"144","lat":38.881185,"station_id":"144","region_id":"42","rental_uris":{"ios":"https://dc.lft.to/lastmile_qr_scan","android":"https://dc.lft.to/lastmile_qr_scan"},"has_kiosk":true,"eightd_has_key_dispenser":false,"external_id":"08251448-1f3f-11e7-bf6b-3863bb334450","capacity":19,"name":"3rd & G St SE","eightd_station_services":[],"electric_bike_surcharge_waiver":false,"rental_methods":["KEY","CREDITCARD"],"lon":-77.001828,"station_type":"classic","short_name":"31625"},{"legacy_id":"145","lat":38.912719,"station_id":"145","region_id":"42","rental_uris":{"ios":"https://dc.lft.to/lastmile_qr_scan","android":"https://dc.lft.to/lastmile_qr_scan"},"has_kiosk":true,"eightd_has_key_dispenser":false,"external_id":"082514b8-1f3f-11e7-bf6b-3863bb334450","capacity":15,"name":"7th & R St NW / Shaw Library","eightd_station_services":[],"electric_bike_surcharge_waiver":false,"rental_methods":["KEY","CREDITCARD"],"lon":-77.022155,"station_type":"classic","short_name":"31245"},{"legacy_id":"146","lat":38.9418,"station_id":"146","region_id":"42","rental_uris":{"ios":"https://dc.lft.to/lastmile_qr_scan","android":"https://dc.lft.to/lastmile_qr_scan"},"has_kiosk":true,"eightd_has_key_dispenser":false,"external_id":"08251532-1f3f-11e7-bf6b-3863bb334450","capacity":15,"name":"9th & Upshur St NW","eightd_station_services":[],"electric_bike_surcharge_waiver":false,"rental_methods":["KEY","CREDITCARD"],"lon":-77.0251,"station_type":"classic","short_name":"31404"},{"legacy_id":"147","lat":38.915417,"station_id":"147","region_id":"42","rental_uris":{"ios":"https://dc.lft.to/lastmile_qr_scan","android":"https://dc.lft.to/lastmile_qr_scan"},"has_kiosk":true,"eightd_has_key_dispenser":false,"external_id":"082515d4-1f3f-11e7-bf6b-3863bb334450","capacity":15,"name":"1st & Rhode Island Ave NW","eightd_station_services":[],"electric_bike_surcharge_waiver":false,"rental_methods":["KEY","CREDITCARD"],"lon":-77.012289,"station_type":"classic","short_name":"31506"},{"legacy_id":"148","lat":38.92812111132096,"station_id":"148","region_id":"42","rental_uris":{"ios":"https://dc.lft.to/lastmile_qr_scan","android":"https://dc.lft.to/lastmile_qr_scan"},"has_kiosk":true,"eightd_has_key_dispenser":false,"external_id":"0825164b-1f3f-11e7-bf6b-3863bb334450","capacity":19,"name":"Columbia Rd & Georgia Ave NW","eightd_station_services":[],"electric_bike_surcharge_waiver":false,"rental_methods":["KEY","CREDITCARD"],"lon":-77.0237946510315,"station_type":"classic","short_name":"31115"},{"legacy_id":"149","lat":38.917761,"station_id":"149","region_id":"42","rental_uris":{"ios":"https://dc.lft.to/lastmile_qr_scan","android":"https://dc.lft.to/lastmile_qr_scan"},"has_kiosk":true,"eightd_has_key_dispenser":false,"external_id":"082516c1-1f3f-11e7-bf6b-3863bb334450","capacity":19,"name":"California St & Florida Ave NW","eightd_station_services":[],"electric_bike_surcharge_waiver":false,"rental_methods":["KEY","CREDITCARD"],"lon":-77.04062,"station_type":"classic","short_name":"31116"},{"legacy_id":"150","lat":38.889935,"station_id":"150","region_id":"42","rental_uris":{"ios":"https://dc.lft.to/lastmile_qr_scan","android":"https://dc.lft.to/lastmile_qr_scan"},"has_kiosk":true,"eightd_has_key_dispenser":false,"external_id":"0825176c-1f3f-11e7-bf6b-3863bb334450","capacity":19,"name":"Benning Rd & East Capitol St NE / Benning Rd Metro","eightd_station_services":[],"electric_bike_surcharge_waiver":false,"rental_methods":["KEY","CREDITCARD"],"lon":-76.93723,"station_type":"classic","short_name":"31707"},{"legacy_id":"151","lat":38.930282,"station_id":"151","region_id":"42","rental_uris":{"ios":"https://dc.lft.to/lastmile_qr_scan","android":"https://dc.lft.to/lastmile_qr_scan"},"has_kiosk":true,"eightd_has_key_dispenser":false,"external_id":"0825180e-1f3f-11e7-bf6b-3863bb334450","capacity":15,"name":"3000 Connecticut Ave NW / National Zoo","eightd_station_services":[],"electric_bike_surcharge_waiver":false,"rental_methods":["KEY","CREDITCARD"],"lon":-77.055599,"station_type":"classic","short_name":"31307"},{"legacy_id":"152","lat":38.896544,"station_id":"152","region_id":"42","rental_uris":{"ios":"https://dc.lft.to/lastmile_qr_scan","android":"https://dc.lft.to/lastmile_qr_scan"},"has_kiosk":true,"eightd_has_key_dispenser":false,"external_id":"082518eb-1f3f-11e7-bf6b-3863bb334450","capacity":15,"name":"Anacostia Ave & Benning Rd NE / River Terrace ","eightd_station_services":[],"electric_bike_surcharge_waiver":false,"rental_methods":["KEY","CREDITCARD"],"lon":-76.96012,"station_type":"classic","short_name":"31708"},{"legacy_id":"153","lat":38.905126,"station_id":"153","region_id":"42","rental_uris":{"ios":"https://dc.lft.to/lastmile_qr_scan","android":"https://dc.lft.to/lastmile_qr_scan"},"has_kiosk":true,"eightd_has_key_dispenser":false,"external_id":"08251984-1f3f-11e7-bf6b-3863bb334450","capacity":19,"name":"M St & Pennsylvania Ave NW","eightd_station_services":[],"electric_bike_surcharge_waiver":false,"rental_methods":["KEY","CREDITCARD"],"lon":-77.056887,"station_type":"classic","short_name":"31246"},{"legacy_id":"154","lat":38.88732,"station_id":"154","region_id":"42","rental_uris":{"ios":"https://dc.lft.to/lastmile_qr_scan","android":"https://dc.lft.to/lastmile_qr_scan"},"has_kiosk":true,"eightd_has_key_dispenser":false,"external_id":"08251a1b-1f3f-11e7-bf6b-3863bb334450","capacity":15,"name":"15th St & Massachusetts Ave SE","eightd_station_services":[],"electric_bike_surcharge_waiver":false,"rental_methods":["KEY","CREDITCARD"],"lon":-76.983569,"station_type":"classic","short_name":"31626"},{"legacy_id":"155","lat":38.844711,"station_id":"155","region_id":"42","rental_uris":{"ios":"https://dc.lft.to/lastmile_qr_scan","android":"https://dc.lft.to/lastmile_qr_scan"},"has_kiosk":true,"eightd_has_key_dispenser":false,"external_id":"08251aba-1f3f-11e7-bf6b-3863bb334450","capacity":15,"name":"Congress Heights Metro","eightd_station_services":[],"electric_bike_surcharge_waiver":false,"rental_methods":["KEY","CREDITCARD"],"lon":-76.987823,"station_type":"classic","short_name":"31806"},{"legacy_id":"156","lat":38.876393,"station_id":"156","region_id":"41","rental_uris":{"ios":"https://dc.lft.to/lastmile_qr_scan","android":"https://dc.lft.to/lastmile_qr_scan"},"has_kiosk":true,"eightd_has_key_dispenser":false,"external_id":"08251bba-1f3f-11e7-bf6b-3863bb334450","capacity":11,"name":"N Quincy St & Glebe Rd","eightd_station_services":[],"electric_bike_surcharge_waiver":false,"rental_methods":["KEY","CREDITCARD"],"lon":-77.107735,"station_type":"classic","short_name":"31035"},{"legacy_id":"157","lat":38.85033657788445,"station_id":"157","region_id":"41","rental_uris":{"ios":"https://dc.lft.to/lastmile_qr_scan","android":"https://dc.lft.to/lastmile_qr_scan"},"has_kiosk":true,"eightd_has_key_dispenser":false,"external_id":"08251c45-1f3f-11e7-bf6b-3863bb334450","capacity":11,"name":"Barcroft Community Center","eightd_station_services":[],"electric_bike_surcharge_waiver":false,"rental_methods":["KEY","CREDITCARD"],"lon":-77.1009886264801,"station_type":"classic","short_name":"31033"},{"legacy_id":"158","lat":38.896923,"station_id":"158","region_id":"41","rental_uris":{"ios":"https://dc.lft.to/lastmile_qr_scan","android":"https://dc.lft.to/lastmile_qr_scan"},"has_kiosk":true,"eightd_has_key_dispenser":false,"external_id":"08251cd1-1f3f-11e7-bf6b-3863bb334450","capacity":15,"name":"N Veitch St & 20th St N","eightd_station_services":[],"electric_bike_surcharge_waiver":false,"rental_methods":["KEY","CREDITCARD"],"lon":-77.086502,"station_type":"classic","short_name":"31029"},{"legacy_id":"159","lat":38.9024,"station_id":"159","region_id":"42","rental_uris":{"ios":"https://dc.lft.to/lastmile_qr_scan","android":"https://dc.lft.to/lastmile_qr_scan"},"has_kiosk":true,"eightd_has_key_dispenser":false,"external_id":"08251d5a-1f3f-11e7-bf6b-3863bb334450","capacity":23,"name":"10th & K St NW","eightd_station_services":[],"electric_bike_surcharge_waiver":false,"rental_methods":["KEY","CREDITCARD"],"lon":-77.02622,"station_type":"classic","short_name":"31263"},{"legacy_id":"160","lat":38.885801,"station_id":"160","region_id":"41","rental_uris":{"ios":"https://dc.lft.to/lastmile_qr_scan","android":"https://dc.lft.to/lastmile_qr_scan"},"has_kiosk":true,"eightd_has_key_dispenser":false,"external_id":"08251ded-1f3f-11e7-bf6b-3863bb334450","capacity":11,"name":"Fairfax Dr & Wilson Blvd","eightd_station_services":[],"electric_bike_surcharge_waiver":false,"rental_methods":["KEY","CREDITCARD"],"lon":-77.097745,"station_type":"classic","short_name":"31023"},{"legacy_id":"161","lat":38.896355,"station_id":"161","region_id":"41","rental_uris":{"ios":"https://dc.lft.to/lastmile_qr_scan","android":"https://dc.lft.to/lastmile_qr_scan"},"has_kiosk":true,"eightd_has_key_dispenser":false,"external_id":"08251e7d-1f3f-11e7-bf6b-3863bb334450","capacity":11,"name":"Key Blvd & N Quinn St","eightd_station_services":[],"electric_bike_surcharge_waiver":false,"rental_methods":["KEY","CREDITCARD"],"lon":-77.078408,"station_type":"classic","short_name":"31027"},{"legacy_id":"162","lat":38.878854378063295,"station_id":"162","region_id":"42","rental_uris":{"ios":"https://dc.lft.to/lastmile_qr_scan","android":"https://dc.lft.to/lastmile_qr_scan"},"has_kiosk":true,"eightd_has_key_dispenser":false,"external_id":"08251f03-1f3f-11e7-bf6b-3863bb334450","capacity":15,"name":"1st & K St SE","eightd_station_services":[],"electric_bike_surcharge_waiver":false,"rental_methods":["KEY","CREDITCARD"],"lon":-77.00572729110718,"station_type":"classic","short_name":"31628"},{"legacy_id":"163","lat":38.922649,"station_id":"163","region_id":"42","rental_uris":{"ios":"https://dc.lft.to/lastmile_qr_scan","android":"https://dc.lft.to/lastmile_qr_scan"},"has_kiosk":true,"eightd_has_key_dispenser":false,"external_id":"08251f93-1f3f-11e7-bf6b-3863bb334450","capacity":19,"name":"39th & Calvert St NW / Stoddert","eightd_station_services":[],"electric_bike_surcharge_waiver":false,"rental_methods":["KEY","CREDITCARD"],"lon":-77.077271,"station_type":"classic","short_name":"31306"},{"legacy_id":"164","lat":38.928743,"station_id":"164","region_id":"42","rental_uris":{"ios":"https://dc.lft.to/lastmile_qr_scan","android":"https://dc.lft.to/lastmile_qr_scan"},"has_kiosk":true,"eightd_has_key_dispenser":false,"external_id":"0825201c-1f3f-11e7-bf6b-3863bb334450","capacity":15,"name":"1st & Washington Hospital Center NW","eightd_station_services":[],"electric_bike_surcharge_waiver":false,"rental_methods":["KEY","CREDITCARD"],"lon":-77.012457,"station_type":"classic","short_name":"31507"},{"legacy_id":"165","lat":38.882788,"station_id":"165","region_id":"41","rental_uris":{"ios":"https://dc.lft.to/lastmile_qr_scan","android":"https://dc.lft.to/lastmile_qr_scan"},"has_kiosk":true,"eightd_has_key_dispenser":false,"external_id":"082520aa-1f3f-11e7-bf6b-3863bb334450","capacity":19,"name":"Virginia Square Metro / Monroe St & 9th St N","eightd_station_services":[],"electric_bike_surcharge_waiver":false,"rental_methods":["KEY","CREDITCARD"],"lon":-77.103148,"station_type":"classic","short_name":"31024"},{"legacy_id":"166","lat":38.88397,"station_id":"166","region_id":"41","rental_uris":{"ios":"https://dc.lft.to/lastmile_qr_scan","android":"https://dc.lft.to/lastmile_qr_scan"},"has_kiosk":true,"eightd_has_key_dispenser":false,"external_id":"0825213e-1f3f-11e7-bf6b-3863bb334450","capacity":11,"name":"Central Library / Quincy St & 10th St N","eightd_station_services":[],"electric_bike_surcharge_waiver":false,"rental_methods":["KEY","CREDITCARD"],"lon":-77.10783,"station_type":"classic","short_name":"31025"},{"legacy_id":"167","lat":38.884734,"station_id":"167","region_id":"41","rental_uris":{"ios":"https://dc.lft.to/lastmile_qr_scan","android":"https://dc.lft.to/lastmile_qr_scan"},"has_kiosk":true,"eightd_has_key_dispenser":false,"external_id":"082521d3-1f3f-11e7-bf6b-3863bb334450","capacity":15,"name":"Washington Blvd & 10th St N","eightd_station_services":[],"electric_bike_surcharge_waiver":false,"rental_methods":["KEY","CREDITCARD"],"lon":-77.093485,"station_type":"classic","short_name":"31026"},{"legacy_id":"168","lat":38.8885525,"station_id":"168","region_id":"42","rental_uris":{"ios":"https://dc.lft.to/lastmile_qr_scan","android":"https://dc.lft.to/lastmile_qr_scan"},"has_kiosk":true,"eightd_has_key_dispenser":false,"external_id":"08252260-1f3f-11e7-bf6b-3863bb334450","capacity":23,"name":"Jefferson Dr & 14th St SW","eightd_station_services":[],"electric_bike_surcharge_waiver":false,"rental_methods":["KEY","CREDITCARD"],"lon":-77.032427,"station_type":"classic","short_name":"31247"},{"legacy_id":"169","lat":38.888774,"station_id":"169","region_id":"42","rental_uris":{"ios":"https://dc.lft.to/lastmile_qr_scan","android":"https://dc.lft.to/lastmile_qr_scan"},"has_kiosk":true,"eightd_has_key_dispenser":false,"external_id":"082522f0-1f3f-11e7-bf6b-3863bb334450","capacity":35,"name":"Smithsonian-National Mall / Jefferson Dr & 12th St SW","eightd_station_services":[],"electric_bike_surcharge_waiver":false,"rental_methods":["KEY","CREDITCARD"],"lon":-77.028694,"station_type":"classic","short_name":"31248"},{"legacy_id":"170","lat":38.87887,"station_id":"170","region_id":"41","rental_uris":{"ios":"https://dc.lft.to/lastmile_qr_scan","android":"https://dc.lft.to/lastmile_qr_scan"},"has_kiosk":true,"eightd_has_key_dispenser":false,"external_id":"08252387-1f3f-11e7-bf6b-3863bb334450","capacity":15,"name":"George Mason Dr & Wilson Blvd","eightd_station_services":[],"electric_bike_surcharge_waiver":false,"rental_methods":["KEY","CREDITCARD"],"lon":-77.1207,"station_type":"classic","short_name":"31036"},{"legacy_id":"171","lat":38.894573,"station_id":"171","region_id":"42","rental_uris":{"ios":"https://dc.lft.to/lastmile_qr_scan","android":"https://dc.lft.to/lastmile_qr_scan"},"has_kiosk":true,"eightd_has_key_dispenser":false,"external_id":"08252414-1f3f-11e7-bf6b-3863bb334450","capacity":19,"name":"6th St & Indiana Ave NW","eightd_station_services":[],"electric_bike_surcharge_waiver":false,"rental_methods":["KEY","CREDITCARD"],"lon":-77.01994,"station_type":"classic","short_name":"31264"},{"legacy_id":"172","lat":38.893237,"station_id":"172","region_id":"41","rental_uris":{"ios":"https://dc.lft.to/lastmile_qr_scan","android":"https://dc.lft.to/lastmile_qr_scan"},"has_kiosk":true,"eightd_has_key_dispenser":false,"external_id":"082524a2-1f3f-11e7-bf6b-3863bb334450","capacity":11,"name":"N Veitch St & Key Blvd","eightd_station_services":[],"electric_bike_surcharge_waiver":false,"rental_methods":["KEY","CREDITCARD"],"lon":-77.086063,"station_type":"classic","short_name":"31028"},{"legacy_id":"173","lat":38.89593,"station_id":"173","region_id":"41","rental_uris":{"ios":"https://dc.lft.to/lastmile_qr_scan","android":"https://dc.lft.to/lastmile_qr_scan"},"has_kiosk":true,"eightd_has_key_dispenser":false,"external_id":"08252530-1f3f-11e7-bf6b-3863bb334450","capacity":19,"name":"Lee Hwy & N Adams St","eightd_station_services":[],"electric_bike_surcharge_waiver":false,"rental_methods":["KEY","CREDITCARD"],"lon":-77.089006,"station_type":"classic","short_name":"31030"},{"legacy_id":"174","lat":38.89054,"station_id":"174","region_id":"41","rental_uris":{"ios":"https://dc.lft.to/lastmile_qr_scan","android":"https://dc.lft.to/lastmile_qr_scan"},"has_kiosk":true,"eightd_has_key_dispenser":false,"external_id":"082525bb-1f3f-11e7-bf6b-3863bb334450","capacity":11,"name":"15th St & N Scott St","eightd_station_services":[],"electric_bike_surcharge_waiver":false,"rental_methods":["KEY","CREDITCARD"],"lon":-77.08095,"station_type":"classic","short_name":"31031"},{"legacy_id":"175","lat":38.88081,"station_id":"175","region_id":"41","rental_uris":{"ios":"https://dc.lft.to/lastmile_qr_scan","android":"https://dc.lft.to/lastmile_qr_scan"},"has_kiosk":true,"eightd_has_key_dispenser":false,"external_id":"08252645-1f3f-11e7-bf6b-3863bb334450","capacity":11,"name":"Washington Blvd & 7th St N","eightd_station_services":[],"electric_bike_surcharge_waiver":false,"rental_methods":["KEY","CREDITCARD"],"lon":-77.090792,"station_type":"classic","short_name":"31032"},{"legacy_id":"176","lat":38.881044,"station_id":"176","region_id":"41","rental_uris":{"ios":"https://dc.lft.to/lastmile_qr_scan","android":"https://dc.lft.to/lastmile_qr_scan"},"has_kiosk":true,"eightd_has_key_dispenser":false,"external_id":"082526d1-1f3f-11e7-bf6b-3863bb334450","capacity":23,"name":"Ballston Metro / Stuart St & 9th St N","eightd_station_services":[],"electric_bike_surcharge_waiver":false,"rental_methods":["KEY","CREDITCARD"],"lon":-77.111768,"station_type":"classic","short_name":"31037"},{"legacy_id":"177","lat":38.882629,"station_id":"177","region_id":"41","rental_uris":{"ios":"https://dc.lft.to/lastmile_qr_scan","android":"https://dc.lft.to/lastmile_qr_scan"},"has_kiosk":true,"eightd_has_key_dispenser":false,"external_id":"0825275b-1f3f-11e7-bf6b-3863bb334450","capacity":11,"name":"Fairfax Dr & N Randolph St","eightd_station_services":[],"electric_bike_surcharge_waiver":false,"rental_methods":["KEY","CREDITCARD"],"lon":-77.109366,"station_type":"classic","short_name":"31034"},{"legacy_id":"178","lat":38.879819,"station_id":"178","region_id":"42","rental_uris":{"ios":"https://dc.lft.to/lastmile_qr_scan","android":"https://dc.lft.to/lastmile_qr_scan"},"has_kiosk":true,"eightd_has_key_dispenser":false,"external_id":"082527e7-1f3f-11e7-bf6b-3863bb334450","capacity":23,"name":"Jefferson Memorial","eightd_station_services":[],"electric_bike_surcharge_waiver":false,"rental_methods":["KEY","CREDITCARD"],"lon":-77.037413,"station_type":"classic","short_name":"31249"},{"legacy_id":"179","lat":38.866611,"station_id":"179","region_id":"42","rental_uris":{"ios":"https://dc.lft.to/lastmile_qr_scan","android":"https://dc.lft.to/lastmile_qr_scan"},"has_kiosk":true,"eightd_has_key_dispenser":false,"external_id":"08252874-1f3f-11e7-bf6b-3863bb334450","capacity":15,"name":"Good Hope Rd & 14th St SE","eightd_station_services":[],"electric_bike_surcharge_waiver":false,"rental_methods":["KEY","CREDITCARD"],"lon":-76.985238,"station_type":"classic","short_name":"31803"},{"legacy_id":"180","lat":38.883921,"station_id":"180","region_id":"41","rental_uris":{"ios":"https://dc.lft.to/lastmile_qr_scan","android":"https://dc.lft.to/lastmile_qr_scan"},"has_kiosk":true,"eightd_has_key_dispenser":false,"external_id":"082528fb-1f3f-11e7-bf6b-3863bb334450","capacity":11,"name":"Glebe Rd & 11th St N","eightd_station_services":[],"electric_bike_surcharge_waiver":false,"rental_methods":["KEY","CREDITCARD"],"lon":-77.116817,"station_type":"classic","short_name":"31038"},{"legacy_id":"181","lat":38.880012,"station_id":"181","region_id":"41","rental_uris":{"ios":"https://dc.lft.to/lastmile_qr_scan","android":"https://dc.lft.to/lastmile_qr_scan"},"has_kiosk":true,"eightd_has_key_dispenser":false,"external_id":"08252a00-1f3f-11e7-bf6b-3863bb334450","capacity":15,"name":"Wilson Blvd & N Quincy St","eightd_station_services":[],"electric_bike_surcharge_waiver":false,"rental_methods":["KEY","CREDITCARD"],"lon":-77.107854,"station_type":"classic","short_name":"31039"},{"legacy_id":"182","lat":38.884616,"station_id":"182","region_id":"41","rental_uris":{"ios":"https://dc.lft.to/lastmile_qr_scan","android":"https://dc.lft.to/lastmile_qr_scan"},"has_kiosk":true,"eightd_has_key_dispenser":false,"external_id":"08252a92-1f3f-11e7-bf6b-3863bb334450","capacity":11,"name":"GMU / Fairfax Dr & Kenmore St","eightd_station_services":[],"electric_bike_surcharge_waiver":false,"rental_methods":["KEY","CREDITCARD"],"lon":-77.10108,"station_type":"classic","short_name":"31040"},{"legacy_id":"183","lat":38.90509,"station_id":"183","region_id":"42","rental_uris":{"ios":"https://dc.lft.to/lastmile_qr_scan","android":"https://dc.lft.to/lastmile_qr_scan"},"has_kiosk":true,"eightd_has_key_dispenser":false,"external_id":"08252b28-1f3f-11e7-bf6b-3863bb334450","capacity":19,"name":"Gallaudet / 8th St & Florida Ave NE","eightd_station_services":[],"electric_bike_surcharge_waiver":false,"rental_methods":["KEY","CREDITCARD"],"lon":-76.9941,"station_type":"classic","short_name":"31508"},{"legacy_id":"185","lat":38.903584,"station_id":"185","region_id":"42","rental_uris":{"ios":"https://dc.lft.to/lastmile_qr_scan","android":"https://dc.lft.to/lastmile_qr_scan"},"has_kiosk":true,"eightd_has_key_dispenser":false,"external_id":"08252c4a-1f3f-11e7-bf6b-3863bb334450","capacity":19,"name":"20th & L St NW","eightd_station_services":[],"electric_bike_surcharge_waiver":false,"rental_methods":["KEY","CREDITCARD"],"lon":-77.044789,"station_type":"classic","short_name":"31250"},{"legacy_id":"186","lat":38.903819,"station_id":"186","region_id":"42","rental_uris":{"ios":"https://dc.lft.to/lastmile_qr_scan","android":"https://dc.lft.to/lastmile_qr_scan"},"has_kiosk":true,"eightd_has_key_dispenser":false,"external_id":"082537e4-1f3f-11e7-bf6b-3863bb334450","capacity":19,"name":"12th & L St NW","eightd_station_services":[],"electric_bike_surcharge_waiver":false,"rental_methods":["KEY","CREDITCARD"],"lon":-77.0284,"station_type":"classic","short_name":"31251"},{"legacy_id":"187","lat":38.901539,"station_id":"187","region_id":"42","rental_uris":{"ios":"https://dc.lft.to/lastmile_qr_scan","android":"https://dc.lft.to/lastmile_qr_scan"},"has_kiosk":true,"eightd_has_key_dispenser":false,"external_id":"0825388d-1f3f-11e7-bf6b-3863bb334450","capacity":19,"name":"21st St & Pennsylvania Ave NW","eightd_station_services":[],"electric_bike_surcharge_waiver":false,"rental_methods":["KEY","CREDITCARD"],"lon":-77.046564,"station_type":"classic","short_name":"31252"},{"legacy_id":"188","lat":38.902204,"station_id":"188","region_id":"42","rental_uris":{"ios":"https://dc.lft.to/lastmile_qr_scan","android":"https://dc.lft.to/lastmile_qr_scan"},"has_kiosk":true,"eightd_has_key_dispenser":false,"external_id":"08253908-1f3f-11e7-bf6b-3863bb334450","capacity":23,"name":"19th & K St NW","eightd_station_services":[],"electric_bike_surcharge_waiver":false,"rental_methods":["KEY","CREDITCARD"],"lon":-77.04337,"station_type":"classic","short_name":"31253"},{"legacy_id":"189","lat":38.803124,"station_id":"189","region_id":"40","rental_uris":{"ios":"https://dc.lft.to/lastmile_qr_scan","android":"https://dc.lft.to/lastmile_qr_scan"},"has_kiosk":true,"eightd_has_key_dispenser":false,"external_id":"08253976-1f3f-11e7-bf6b-3863bb334450","capacity":19,"name":"Prince St & Union St","eightd_station_services":[],"electric_bike_surcharge_waiver":false,"rental_methods":["KEY","CREDITCARD"],"lon":-77.040363,"station_type":"classic","short_name":"31041"},{"legacy_id":"190","lat":38.804718,"station_id":"190","region_id":"40","rental_uris":{"ios":"https://dc.lft.to/lastmile_qr_scan","android":"https://dc.lft.to/lastmile_qr_scan"},"has_kiosk":true,"eightd_has_key_dispenser":false,"external_id":"082539e0-1f3f-11e7-bf6b-3863bb334450","capacity":15,"name":"Market Square / King St & Royal St","eightd_station_services":[],"electric_bike_surcharge_waiver":false,"rental_methods":["KEY","CREDITCARD"],"lon":-77.043363,"station_type":"classic","short_name":"31042"},{"legacy_id":"191","lat":38.81074147938705,"station_id":"191","region_id":"40","rental_uris":{"ios":"https://dc.lft.to/lastmile_qr_scan","android":"https://dc.lft.to/lastmile_qr_scan"},"has_kiosk":true,"eightd_has_key_dispenser":false,"external_id":"08253a4b-1f3f-11e7-bf6b-3863bb334450","capacity":15,"name":"St Asaph & Pendleton St","eightd_station_services":[],"electric_bike_surcharge_waiver":false,"rental_methods":["KEY","CREDITCARD"],"lon":-77.0446327328682,"station_type":"classic","short_name":"31043"},{"legacy_id":"192","lat":38.805317,"station_id":"192","region_id":"40","rental_uris":{"ios":"https://dc.lft.to/lastmile_qr_scan","android":"https://dc.lft.to/lastmile_qr_scan"},"has_kiosk":true,"eightd_has_key_dispenser":false,"external_id":"08253ab7-1f3f-11e7-bf6b-3863bb334450","capacity":15,"name":"King St & Patrick St","eightd_station_services":[],"electric_bike_surcharge_waiver":false,"rental_methods":["KEY","CREDITCARD"],"lon":-77.049883,"station_type":"classic","short_name":"31044"},{"legacy_id":"193","lat":38.902,"station_id":"193","region_id":"42","rental_uris":{"ios":"https://dc.lft.to/lastmile_qr_scan","android":"https://dc.lft.to/lastmile_qr_scan"},"has_kiosk":true,"eightd_has_key_dispenser":false,"external_id":"08253b2b-1f3f-11e7-bf6b-3863bb334450","capacity":27,"name":"15th & K St NW","eightd_station_services":[],"electric_bike_surcharge_waiver":false,"rental_methods":["KEY","CREDITCARD"],"lon":-77.03353,"station_type":"classic","short_name":"31254"},{"legacy_id":"194","lat":38.805648,"station_id":"194","region_id":"40","rental_uris":{"ios":"https://dc.lft.to/lastmile_qr_scan","android":"https://dc.lft.to/lastmile_qr_scan"},"has_kiosk":true,"eightd_has_key_dispenser":false,"external_id":"08253b95-1f3f-11e7-bf6b-3863bb334450","capacity":15,"name":"Commerce St & Fayette St","eightd_station_services":[],"electric_bike_surcharge_waiver":false,"rental_methods":["KEY","CREDITCARD"],"lon":-77.05293,"station_type":"classic","short_name":"31045"},{"legacy_id":"195","lat":38.811456,"station_id":"195","region_id":"40","rental_uris":{"ios":"https://dc.lft.to/lastmile_qr_scan","android":"https://dc.lft.to/lastmile_qr_scan"},"has_kiosk":true,"eightd_has_key_dispenser":false,"external_id":"08253c00-1f3f-11e7-bf6b-3863bb334450","capacity":17,"name":"Henry St & Pendleton St","eightd_station_services":[],"electric_bike_surcharge_waiver":false,"rental_methods":["KEY","CREDITCARD"],"lon":-77.050276,"station_type":"classic","short_name":"31046"},{"legacy_id":"196","lat":38.814577,"station_id":"196","region_id":"40","rental_uris":{"ios":"https://dc.lft.to/lastmile_qr_scan","android":"https://dc.lft.to/lastmile_qr_scan"},"has_kiosk":true,"eightd_has_key_dispenser":false,"external_id":"08253c6b-1f3f-11e7-bf6b-3863bb334450","capacity":29,"name":"Braddock Rd Metro","eightd_station_services":[],"electric_bike_surcharge_waiver":false,"rental_methods":["KEY","CREDITCARD"],"lon":-77.052808,"station_type":"classic","short_name":"31047"},{"legacy_id":"197","lat":38.80576284873485,"station_id":"197","region_id":"40","rental_uris":{"ios":"https://dc.lft.to/lastmile_qr_scan","android":"https://dc.lft.to/lastmile_qr_scan"},"has_kiosk":true,"eightd_has_key_dispenser":false,"external_id":"08253cdb-1f3f-11e7-bf6b-3863bb334450","capacity":23,"name":"King St Metro South","eightd_station_services":[],"electric_bike_surcharge_waiver":false,"rental_methods":["KEY","CREDITCARD"],"lon":-77.060626745224,"station_type":"classic","short_name":"31048"},{"legacy_id":"198","lat":38.9066,"station_id":"198","region_id":"42","rental_uris":{"ios":"https://dc.lft.to/lastmile_qr_scan","android":"https://dc.lft.to/lastmile_qr_scan"},"has_kiosk":true,"eightd_has_key_dispenser":false,"external_id":"08253e02-1f3f-11e7-bf6b-3863bb334450","capacity":15,"name":"24th & N St NW","eightd_station_services":[],"electric_bike_surcharge_waiver":false,"rental_methods":["KEY","CREDITCARD"],"lon":-77.05152,"station_type":"classic","short_name":"31255"},{"legacy_id":"199","lat":38.895914,"station_id":"199","region_id":"42","rental_uris":{"ios":"https://dc.lft.to/lastmile_qr_scan","android":"https://dc.lft.to/lastmile_qr_scan"},"has_kiosk":true,"eightd_has_key_dispenser":false,"external_id":"08253e7e-1f3f-11e7-bf6b-3863bb334450","capacity":15,"name":"10th & E St NW","eightd_station_services":[],"electric_bike_surcharge_waiver":false,"rental_methods":["KEY","CREDITCARD"],"lon":-77.026064,"station_type":"classic","short_name":"31256"},{"legacy_id":"200","lat":38.90088,"station_id":"200","region_id":"42","rental_uris":{"ios":"https://dc.lft.to/lastmile_qr_scan","android":"https://dc.lft.to/lastmile_qr_scan"},"has_kiosk":true,"eightd_has_key_dispenser":false,"external_id":"08254037-1f3f-11e7-bf6b-3863bb334450","capacity":15,"name":"22nd & I St NW / Foggy Bottom","eightd_station_services":[],"electric_bike_surcharge_waiver":false,"rental_methods":["KEY","CREDITCARD"],"lon":-77.048911,"station_type":"classic","short_name":"31257"},{"legacy_id":"201","lat":38.883669,"station_id":"201","region_id":"41","rental_uris":{"ios":"https://dc.lft.to/lastmile_qr_scan","android":"https://dc.lft.to/lastmile_qr_scan"},"has_kiosk":true,"eightd_has_key_dispenser":false,"external_id":"082540b2-1f3f-11e7-bf6b-3863bb334450","capacity":11,"name":"Utah St & 11th St N","eightd_station_services":[],"electric_bike_surcharge_waiver":false,"rental_methods":["KEY","CREDITCARD"],"lon":-77.113905,"station_type":"classic","short_name":"31049"},{"legacy_id":"202","lat":38.884961,"station_id":"202","region_id":"41","rental_uris":{"ios":"https://dc.lft.to/lastmile_qr_scan","android":"https://dc.lft.to/lastmile_qr_scan"},"has_kiosk":true,"eightd_has_key_dispenser":false,"external_id":"08254123-1f3f-11e7-bf6b-3863bb334450","capacity":11,"name":"Barton St & 10th St N","eightd_station_services":[],"electric_bike_surcharge_waiver":false,"rental_methods":["KEY","CREDITCARD"],"lon":-77.08777,"station_type":"classic","short_name":"31050"},{"legacy_id":"203","lat":38.889365,"station_id":"203","region_id":"41","rental_uris":{"ios":"https://dc.lft.to/lastmile_qr_scan","android":"https://dc.lft.to/lastmile_qr_scan"},"has_kiosk":true,"eightd_has_key_dispenser":false,"external_id":"08254215-1f3f-11e7-bf6b-3863bb334450","capacity":11,"name":"Arlington Blvd & N Queen St","eightd_station_services":[],"electric_bike_surcharge_waiver":false,"rental_methods":["KEY","CREDITCARD"],"lon":-77.077294,"station_type":"classic","short_name":"31051"},{"legacy_id":"204","lat":38.888255,"station_id":"204","region_id":"42","rental_uris":{"ios":"https://dc.lft.to/lastmile_qr_scan","android":"https://dc.lft.to/lastmile_qr_scan"},"has_kiosk":true,"eightd_has_key_dispenser":false,"external_id":"08254284-1f3f-11e7-bf6b-3863bb334450","capacity":25,"name":"Lincoln Memorial","eightd_station_services":[],"electric_bike_surcharge_waiver":false,"rental_methods":["KEY","CREDITCARD"],"lon":-77.0494365,"station_type":"classic","short_name":"31258"},{"legacy_id":"206","lat":38.894722,"station_id":"206","region_id":"42","rental_uris":{"ios":"https://dc.lft.to/lastmile_qr_scan","android":"https://dc.lft.to/lastmile_qr_scan"},"has_kiosk":true,"eightd_has_key_dispenser":false,"external_id":"082543d4-1f3f-11e7-bf6b-3863bb334450","capacity":15,"name":"20th St & Virginia Ave NW","eightd_station_services":[],"electric_bike_surcharge_waiver":false,"rental_methods":["KEY","CREDITCARD"],"lon":-77.045128,"station_type":"classic","short_name":"31259"},{"legacy_id":"207","lat":38.90093,"station_id":"207","region_id":"42","rental_uris":{"ios":"https://dc.lft.to/lastmile_qr_scan","android":"https://dc.lft.to/lastmile_qr_scan"},"has_kiosk":true,"eightd_has_key_dispenser":false,"external_id":"08254442-1f3f-11e7-bf6b-3863bb334450","capacity":19,"name":"5th St & Massachusetts Ave NW","eightd_station_services":[],"electric_bike_surcharge_waiver":false,"rental_methods":["KEY","CREDITCARD"],"lon":-77.018677,"station_type":"classic","short_name":"31265"},{"legacy_id":"208","lat":38.943837,"station_id":"208","region_id":"42","rental_uris":{"ios":"https://dc.lft.to/lastmile_qr_scan","android":"https://dc.lft.to/lastmile_qr_scan"},"has_kiosk":true,"eightd_has_key_dispenser":false,"external_id":"082544b7-1f3f-11e7-bf6b-3863bb334450","capacity":15,"name":"39th & Veazey St NW","eightd_station_services":[],"electric_bike_surcharge_waiver":false,"rental_methods":["KEY","CREDITCARD"],"lon":-77.077078,"station_type":"classic","short_name":"31308"},{"legacy_id":"209","lat":38.954812,"station_id":"209","region_id":"42","rental_uris":{"ios":"https://dc.lft.to/lastmile_qr_scan","android":"https://dc.lft.to/lastmile_qr_scan"},"has_kiosk":true,"eightd_has_key_dispenser":false,"external_id":"08254529-1f3f-11e7-bf6b-3863bb334450","capacity":15,"name":"Fessenden St & Wisconsin Ave NW","eightd_station_services":[],"electric_bike_surcharge_waiver":false,"rental_methods":["KEY","CREDITCARD"],"lon":-77.082426,"station_type":"classic","short_name":"31309"},{"legacy_id":"210","lat":38.905469714943266,"station_id":"210","region_id":"42","rental_uris":{"ios":"https://dc.lft.to/lastmile_qr_scan","android":"https://dc.lft.to/lastmile_qr_scan"},